id,alias,name,review_count,categories,rating,latitude,longitude,city,state,SEG_DCP,Prom_SEG_DCP,Prom_SEG_PEE,PEE_Cumple,DCP_Cumple,state_full
114,steak-48-charlotte,Steak 48,392,Seafood,4.5,35.1517066,-80.8270738,Charlotte,NC,2,202.718954248366,3.738562091503268,1,1,North Carolina
76,sea-level-nc-charlotte-4,Sea Level NC,1121,Seafood,4.5,35.2276867,-80.8413472,Charlotte,NC,3,688.9,4.125,1,1,North Carolina
0,fin-and-fino-charlotte,Fin & Fino,432,Seafood,4.5,35.224332,-80.848423,Charlotte,NC,2,202.718954248366,3.738562091503268,1,1,North Carolina
6145,burtons-grill-and-bar-charlotte-3,Burtons Grill & Bar,586,Seafood,4.5,35.172648,-80.848931,Charlotte,NC,3,688.9,4.125,1,0,North Carolina
459,dresslers-charlotte-charlotte-2,Dressler's - Charlotte,538,Seafood,4.5,35.212936807621034,-80.8357312525279,Charlotte,NC,3,688.9,4.125,1,0,North Carolina
923,cajun-queen-charlotte,Cajun Queen,1334,Seafood,4.0,35.21449,-80.82111,Charlotte,NC,3,688.9,4.125,0,1,North Carolina
86,the-waterman-fish-bar-charlotte,The Waterman Fish Bar,748,Seafood,4.0,35.1998831939852,-80.8664929153442,Charlotte,NC,3,688.9,4.125,0,1,North Carolina
120,the-capital-grille-charlotte-2,The Capital Grille,625,Seafood,4.5,35.228212,-80.841984,Charlotte,NC,3,688.9,4.125,1,0,North Carolina
8638,stir-charlotte-charlotte-2,STIR Charlotte,540,Seafood,4.0,35.21699,-80.85579,Charlotte,NC,3,688.9,4.125,0,0,North Carolina
1,131-main-restaurant-charlotte-2,131 MAIN Restaurant,231,Seafood,4.0,35.1508899,-80.84061,Charlotte,NC,2,202.718954248366,3.738562091503268,1,1,North Carolina
639,mizu-charlotte,Mizu,167,Seafood,4.0,35.1504988409265,-80.82671310971075,Charlotte,NC,2,202.718954248366,3.738562091503268,1,0,North Carolina
98,eddie-vs-prime-seafood-charlotte-4,Eddie V's Prime Seafood,420,Seafood,4.0,35.226789228822255,-80.84327612,Charlotte,NC,2,202.718954248366,3.738562091503268,1,1,North Carolina
24387,bernardins-restaurant-at-ratcliffe-charlotte-3,Bernardin's Restaurant At Ratcliffe,263,Seafood,4.0,35.2243605443209,-80.8469950971852,Charlotte,NC,2,202.718954248366,3.738562091503268,1,1,North Carolina
998,customshop-handcrafted-food-charlotte,Customshop Handcrafted Food,262,Seafood,4.0,35.21393,-80.82623,Charlotte,NC,2,202.718954248366,3.738562091503268,1,1,North Carolina
749,carolines-oyster-bar-charlotte-2,Caroline's Oyster Bar,162,Seafood,4.0,35.22272377,-80.84776134,Charlotte,NC,2,202.718954248366,3.738562091503268,1,0,North Carolina
15,del-friscos-double-eagle-steakhouse-charlotte,Del Frisco's Double Eagle Steakhouse,573,Seafood,4.0,35.1517098,-80.8395928,Charlotte,NC,3,688.9,4.125,0,0,North Carolina
4191543,o-ku-sushi-charlotte,O-Ku,605,Seafood,4.0,35.20955,-80.86048129999999,Charlotte,NC,3,688.9,4.125,0,0,North Carolina
14071,beef-n-bottle-charlotte,Beef 'N Bottle,594,Seafood,4.0,35.179294,-80.876098,Charlotte,NC,3,688.9,4.125,0,0,North Carolina
747,ruths-chris-steak-house-charlotte-3,Ruth's Chris Steak House,306,Seafood,4.0,35.150394,-80.839413,Charlotte,NC,2,202.718954248366,3.738562091503268,1,1,North Carolina
80,new-zealand-cafe-charlotte,New Zealand Cafe,882,Seafood,4.5,35.140625,-80.737637,Charlotte,NC,3,688.9,4.125,1,1,North Carolina
175,fleming-s-prime-steakhouse-and-wine-bar-charlotte-3,Fleming’s Prime Steakhouse & Wine Bar,378,Seafood,4.0,35.22545559416519,-80.8428424116566,Charlotte,NC,2,202.718954248366,3.738562091503268,1,1,North Carolina
98,red-sea-restaurant-and-bar-charlotte-2,Red Sea Restaurant & Bar,102,Seafood,4.5,35.195245,-80.788236,Charlotte,NC,2,202.718954248366,3.738562091503268,1,0,North Carolina
4831,lulus-maryland-style-chicken-charlotte,Lulu's Maryland Style Chicken,486,Seafood,4.0,35.236932050329635,-80.87437867420903,Charlotte,NC,3,688.9,4.125,0,0,North Carolina
13178,firebirds-wood-fired-grill-charlotte-2,Firebirds Wood Fired Grill,320,Seafood,4.0,35.15616478254034,-80.8239736025166,Charlotte,NC,2,202.718954248366,3.738562091503268,1,1,North Carolina
851,rocksalt-charlotte-charlotte,ROCKSALT - Charlotte,387,Seafood,3.5,35.1730419,-80.8461419,Charlotte,NC,2,202.718954248366,3.738562091503268,0,1,North Carolina
2619,boca-marina-restaurant-charlotte,Boca Marina Restaurant,17,Seafood,5.0,35.177022863877994,-80.88062892753508,Charlotte,NC,1,26.93548387096774,3.564516129032258,1,0,North Carolina
70,sullivans-steakhouse-charlotte,Sullivan's Steakhouse,448,Seafood,3.5,35.2101676933474,-80.8599308916656,Charlotte,NC,2,202.718954248366,3.738562091503268,0,1,North Carolina
24,the-crab-cracker-charlotte-4,The Crab Cracker,160,Seafood,4.5,35.29669467,-80.73782683,Charlotte,NC,2,202.718954248366,3.738562091503268,1,0,North Carolina
2,krustaceans-seafood-charlotte-charlotte,Krustaceans Seafood - Charlotte,153,Seafood,4.5,35.190191,-80.9219402,Charlotte,NC,2,202.718954248366,3.738562091503268,1,0,North Carolina
2644,brown-bag-seafood-charlotte-2,Brown Bag Seafood,48,Seafood,4.5,35.22303,-80.84842,Charlotte,NC,1,26.93548387096774,3.564516129032258,1,1,North Carolina
19,mccormick-and-schmicks-seafood-and-steaks-charlotte-3,McCormick & Schmick's Seafood & Steaks,416,Seafood,3.0,35.226437348253974,-80.84455959498712,Charlotte,NC,2,202.718954248366,3.738562091503268,0,1,North Carolina
349745,king-crab-charlotte,King Crab,221,Seafood,4.0,35.1617812375807,-80.7377683371305,Charlotte,NC,2,202.718954248366,3.738562091503268,1,1,North Carolina
291,cuzzos-cuisine-charlotte-7,Cuzzo's Cuisine,355,Seafood,4.0,35.2452198706444,-80.884234,Charlotte,NC,2,202.718954248366,3.738562091503268,1,1,North Carolina
50,skrimp-shack-charlotte-5,Skrimp Shack,154,Seafood,4.0,35.215322,-80.7812,Charlotte,NC,2,202.718954248366,3.738562091503268,1,0,North Carolina
53,fairweather-charlotte,Fairweather,21,Seafood,5.0,35.24834857552148,-80.80632162013097,Charlotte,NC,1,26.93548387096774,3.564516129032258,1,0,North Carolina
5105,jimmy-pearls-charlotte-6,Jimmy Pearls,40,Seafood,4.5,35.2277591,-80.8381993,Charlotte,NC,1,26.93548387096774,3.564516129032258,1,1,North Carolina
860,crab-du-jour-charlotte-charlotte,Crab Du Jour - Charlotte,177,Seafood,4.0,35.29384,-80.74212,Charlotte,NC,2,202.718954248366,3.738562091503268,1,0,North Carolina
3252,bonterra-charlotte,Bonterra,207,Seafood,3.5,35.146602062545405,-80.82718335284704,Charlotte,NC,2,202.718954248366,3.738562091503268,0,1,North Carolina
307,clean-catch-fish-market-charlotte,Clean Catch Fish Market,106,Seafood,4.0,35.1747729,-80.8396481,Charlotte,NC,2,202.718954248366,3.738562091503268,1,0,North Carolina
90,yummy-crab-charlotte-2,Yummy Crab,217,Seafood,3.5,35.1633,-80.88556,Charlotte,NC,2,202.718954248366,3.738562091503268,0,1,North Carolina
6,brown-bag-seafood-charlotte,Brown Bag Seafood,27,Seafood,4.0,35.212106,-80.86029252549349,Charlotte,NC,1,26.93548387096774,3.564516129032258,1,1,North Carolina
6,7th-restaurant-and-lounge-charlotte-4,7th Restaurant & Lounge,200,Seafood,3.0,35.22602,-80.83614,Charlotte,NC,2,202.718954248366,3.738562091503268,0,0,North Carolina
1914,mccormick-and-schmicks-seafood-and-steaks-charlotte-2,McCormick & Schmick's Seafood & Steaks,268,Seafood,3.5,35.1529699850775,-80.8343189539863,Charlotte,NC,2,202.718954248366,3.738562091503268,0,1,North Carolina
892,the-palm-charlotte-charlotte,The Palm - Charlotte,205,Seafood,3.5,35.14667,-80.82772,Charlotte,NC,2,202.718954248366,3.738562091503268,0,1,North Carolina
156,queen-city-wings-charlotte,Queen City Wings,50,Seafood,4.5,35.2087924476999,-80.8332824707031,Charlotte,NC,1,26.93548387096774,3.564516129032258,1,1,North Carolina
6,irie-nation-restaurant-and-bar-charlotte-2,Irie Nation Restaurant and Bar,119,Seafood,3.5,35.24970259879564,-80.81549097896168,Charlotte,NC,2,202.718954248366,3.738562091503268,0,0,North Carolina
500663,bonefish-grill-matthews,Bonefish Grill,222,Seafood,4.0,35.12630418522476,-80.70648879410324,Matthews,NC,2,202.718954248366,3.738562091503268,1,1,North Carolina
227110,boardwalk-billys-raw-bar-and-ribs-charlotte-9,Boardwalk Billy's Raw Bar and Ribs,123,Seafood,3.5,35.1382408,-80.736836,Charlotte,NC,2,202.718954248366,3.738562091503268,0,0,North Carolina
5543,mr-charles-chicken-and-fish-charlotte,Mr Charles Chicken & Fish,89,Seafood,4.0,35.2615418,-80.836737,Charlotte,NC,2,202.718954248366,3.738562091503268,1,0,North Carolina
8,south-21-family-restaurant-charlotte-2,South 21 Family Restaurant,51,Seafood,4.0,35.28266846592524,-80.7640705,Charlotte,NC,1,26.93548387096774,3.564516129032258,1,1,North Carolina
2204,crab-du-jour-charlotte-3,Crab Du Jour,51,Seafood,3.5,35.14341,-80.93055,Charlotte,NC,1,26.93548387096774,3.564516129032258,0,1,North Carolina
8,mi-tierra-restaurant-charlotte,Mi Tierra Restaurant,65,Seafood,3.5,35.1375732,-80.8783493,Charlotte,NC,1,26.93548387096774,3.564516129032258,0,1,North Carolina
1819,the-juicy-crab-charlotte-2,The Juicy Crab Charlotte,96,Seafood,3.5,35.29711167,-80.75630417,Charlotte,NC,2,202.718954248366,3.738562091503268,0,0,North Carolina
41,harbor-inn-seafood-restaurant-charlotte,Harbor Inn Seafood Restaurant,150,Seafood,3.5,35.2871221516046,-80.7282110263893,Charlotte,NC,2,202.718954248366,3.738562091503268,0,0,North Carolina
877,phillips-seafood-charlotte,Phillips Seafood,357,Seafood,2.5,35.218450847997,-80.9423260348793,Charlotte,NC,2,202.718954248366,3.738562091503268,0,1,North Carolina
6601,mr-seafood-charlotte,Mr. Seafood,54,Seafood,4.0,35.260181,-80.77391,Charlotte,NC,1,26.93548387096774,3.564516129032258,1,1,North Carolina
141,mily-and-lalo-peruvian-restaurant-charlotte,Mily & Lalo Peruvian Restaurant,54,Seafood,4.0,35.20399,-80.75959,Charlotte,NC,1,26.93548387096774,3.564516129032258,1,1,North Carolina
100,cuzcatlan-restaurant-charlotte,Cuzcatlan Restaurant,18,Seafood,4.5,35.2119491,-80.76256,Charlotte,NC,1,26.93548387096774,3.564516129032258,1,0,North Carolina
34288,korean-restaurant-charlotte,Korean Restaurant,68,Seafood,3.5,35.16302,-80.73824,Charlotte,NC,1,26.93548387096774,3.564516129032258,0,1,North Carolina
3671,lempira-restaurant-charlotte-4,Lempira Restaurant,68,Seafood,3.0,35.2139238083811,-80.7692369993924,Charlotte,NC,1,26.93548387096774,3.564516129032258,0,1,North Carolina
232,mr3s-crabpot-seafood-takeout-charlotte,Mr3s Crabpot Seafood Takeout,127,Seafood,3.5,35.257522,-80.896814,Charlotte,NC,2,202.718954248366,3.738562091503268,0,0,North Carolina
77768,fire-house-bar-and-lounge-charlotte,Fire House Bar & Lounge,48,Seafood,3.0,35.22213,-80.85412,Charlotte,NC,1,26.93548387096774,3.564516129032258,0,1,North Carolina
9576369,azteca-mexican-restaurant-matthews,Azteca Mexican Restaurant,278,Seafood,3.5,35.13472450999518,-80.71203835275386,Matthews,NC,2,202.718954248366,3.738562091503268,0,1,North Carolina
7,mar-y-tierra-restaurant-charlotte,Mar y Tierra Restaurant,8,Seafood,4.5,35.1848130656612,-80.88644740772531,Charlotte,NC,1,26.93548387096774,3.564516129032258,1,0,North Carolina
37,nicks-gyros-and-seafood-charlotte,Nicks Gyros and Seafood,12,Seafood,4.0,35.21651635426139,-80.8834912,Charlotte,NC,1,26.93548387096774,3.564516129032258,1,0,North Carolina
1799,nc-tavern-charlotte,NC Tavern,77,Seafood,2.5,35.2951049804688,-80.7464599609375,Charlotte,NC,2,202.718954248366,3.738562091503268,0,0,North Carolina
0,mr-gs-charlotte,Mr G's,44,Seafood,4.0,35.2139587,-80.9268723,Charlotte,NC,1,26.93548387096774,3.564516129032258,1,1,North Carolina
880890,33rd-and-main-charlotte,33rd & Main,20,Seafood,3.5,35.234084,-80.872858,Charlotte,NC,1,26.93548387096774,3.564516129032258,0,0,North Carolina
80452,chicken-king-charlotte-3,Chicken King,19,Seafood,4.0,35.25613,-80.8744,Charlotte,NC,1,26.93548387096774,3.564516129032258,1,0,North Carolina
75,brewton-s-cafe-charlotte,Brewton’s Cafe,9,Seafood,4.5,35.24812367,-80.84214517,Charlotte,NC,1,26.93548387096774,3.564516129032258,1,0,North Carolina
203715,baltimore-crab-cake-company-charlotte,Baltimore Crab Cake Company,18,Seafood,4.5,35.10856,-80.8024,Charlotte,NC,1,26.93548387096774,3.564516129032258,1,0,North Carolina
954,york-crossing-restaurant-charlotte,York Crossing Restaurant,26,Seafood,4.0,35.129287409953484,-80.94397744463299,Charlotte,NC,1,26.93548387096774,3.564516129032258,1,0,North Carolina
44863,social-bar-and-kitchen-charlotte,Social Bar & Kitchen,12,Seafood,2.5,35.21693724114347,-80.83924862024467,Charlotte,NC,1,26.93548387096774,3.564516129032258,0,0,North Carolina
615817,tres-pesos-bar-and-grill-charlotte,Tres Pesos Bar & Grill,125,Seafood,2.5,35.17958,-80.884,Charlotte,NC,2,202.718954248366,3.738562091503268,0,0,North Carolina
46,island-flavors-charlotte,Island Flavors,7,Seafood,4.0,35.24983,-80.75022,Charlotte,NC,1,26.93548387096774,3.564516129032258,1,0,North Carolina
8,crown-point-crab-house-charlotte,Crown Point Crab House,29,Seafood,3.0,35.1453079227711,-80.72624925524,Charlotte,NC,1,26.93548387096774,3.564516129032258,0,1,North Carolina
57,irie-nation-charlotte,Irie Nation,16,Seafood,2.5,35.19531,-80.87705,Charlotte,NC,1,26.93548387096774,3.564516129032258,0,0,North Carolina
96,captain-ds-charlotte-9,Captain D's,32,Seafood,2.5,35.1791621289262,-80.8828282356263,Charlotte,NC,1,26.93548387096774,3.564516129032258,0,1,North Carolina
9636,dirtybirdz-charlotte,Dirtybirdz,1,Seafood,4.0,35.24617386814566,-80.8300052,Charlotte,NC,1,26.93548387096774,3.564516129032258,1,0,North Carolina
914,fresh-from-the-grill-charlotte,Fresh From The Grill,3,Seafood,4.5,35.24577,-80.89863,Charlotte,NC,1,26.93548387096774,3.564516129032258,1,0,North Carolina
0,la-isla-tropical-charlotte,La Isla Tropical,1,Seafood,5.0,35.234077,-80.872793,Charlotte,NC,1,26.93548387096774,3.564516129032258,1,0,North Carolina
89428,carrabbas-italian-grill-matthews-6,Carrabba's Italian Grill,217,Seafood,3.0,35.127594118220664,-80.70794525600978,Matthews,NC,2,202.718954248366,3.738562091503268,0,1,North Carolina
108,captain-ds-charlotte,Captain D's,18,Seafood,2.5,35.2403156677519,-80.885668,Charlotte,NC,1,26.93548387096774,3.564516129032258,0,0,North Carolina
76980,the-feathered-fin-charlotte,The Feathered Fin,12,Seafood,4.0,35.12007,-80.7182,Charlotte,NC,1,26.93548387096774,3.564516129032258,1,0,North Carolina
9782,hibachi-express-and-grill-charlotte,Hibachi Express & Grill,74,Seafood,2.5,35.1904945373535,-80.9220199584961,Charlotte,NC,2,202.718954248366,3.738562091503268,0,0,North Carolina
867,captain-ds-charlotte-6,Captain D's,12,Seafood,2.5,35.209067,-80.757651,Charlotte,NC,1,26.93548387096774,3.564516129032258,0,0,North Carolina
5987,red-lobster-matthews,Red Lobster,136,Seafood,2.5,35.133594,-80.7135153,Matthews,NC,2,202.718954248366,3.738562091503268,0,0,North Carolina
921,tasty-crab-house-matthews-matthews-2,Tasty Crab House - Matthews,31,Seafood,3.0,35.1344081,-80.7096859,Matthews,NC,1,26.93548387096774,3.564516129032258,0,1,North Carolina
985,la-riviera-marisqueria-charlotte,La Riviera Marisqueria,16,Seafood,1.5,35.2032244031574,-80.742733836221,Charlotte,NC,1,26.93548387096774,3.564516129032258,0,0,North Carolina
884,american-deli-charlotte-13,American Deli,5,Seafood,3.5,35.2971167960446,-80.7576718030991,Charlotte,NC,1,26.93548387096774,3.564516129032258,0,0,North Carolina
6,catch-21-boiling-seafood-and-fried-chicken-charlotte-3,Catch 21 Boiling Seafood & Fried Chicken,5,Seafood,3.0,35.21727127585619,-80.8827235,Charlotte,NC,1,26.93548387096774,3.564516129032258,0,0,North Carolina
91,la-ceiba-bar-and-grill-charlotte-2,La Ceiba Bar & Grill,6,Seafood,2.5,35.213497,-80.771205,Charlotte,NC,1,26.93548387096774,3.564516129032258,0,0,North Carolina
6,captain-ds-charlotte-3,Captain D's,9,Seafood,2.5,35.25896291,-80.77687172,Charlotte,NC,1,26.93548387096774,3.564516129032258,0,0,North Carolina
18,captain-ds-matthews,Captain D's,30,Seafood,2.0,35.134203,-80.7121632993221,Matthews,NC,1,26.93548387096774,3.564516129032258,0,1,North Carolina
4556446,belas-indian-grill-charlotte,Belas Indian Grill,2,Seafood,2.0,35.2166,-80.88226,Charlotte,NC,1,26.93548387096774,3.564516129032258,0,0,North Carolina
96,hooties-bait-and-tackle-charlotte-2,Hootie's Bait & Tackle,2,Seafood,3.0,35.22777623327411,-80.8445822082171,Charlotte,NC,1,26.93548387096774,3.564516129032258,0,0,North Carolina
69057,krispy-krunchy-chicken-charlotte-5,Krispy Krunchy Chicken,1,Seafood,1.0,35.14818,-80.92494,Charlotte,NC,1,26.93548387096774,3.564516129032258,0,0,North Carolina
18,salt-and-lime-cabo-grill-raleigh,Salt & Lime Cabo Grill,1319,Seafood,4.5,35.8650954206401,-78.6191403403193,Raleigh,NC,3,688.9,4.125,1,1,North Carolina
80,st-roch-fine-oysters-bar-raleigh,St. Roch Fine Oysters + Bar ,362,Seafood,4.5,35.77751,-78.63794,Raleigh,NC,2,202.718954248366,3.738562091503268,1,1,North Carolina
2668,oak-steakhouse-raleigh-raleigh,Oak Steakhouse,235,Seafood,4.5,35.7783777,-78.64589974440034,Raleigh,NC,2,202.718954248366,3.738562091503268,1,1,North Carolina
578,the-cortez-raleigh,The Cortez,370,Seafood,4.5,35.78555,-78.64776,Raleigh,NC,2,202.718954248366,3.738562091503268,1,1,North Carolina
50,cape-fear-seafood-company-raleigh,Cape Fear Seafood Company,351,Seafood,4.5,35.866283530189,-78.6225843429565,Raleigh,NC,2,202.718954248366,3.738562091503268,1,1,North Carolina
138,j-alexanders-raleigh-2,J. Alexander's,412,Seafood,4.0,35.84061,-78.6845,Raleigh,NC,2,202.718954248366,3.738562091503268,1,1,North Carolina
4,seasons-52-raleigh-2,Seasons 52,442,Seafood,4.0,35.84077544,-78.67953825,Raleigh,NC,2,202.718954248366,3.738562091503268,1,1,North Carolina
63186,glenwood-grill-raleigh-3,Glenwood Grill,352,Seafood,4.5,35.8153118833087,-78.660349,Raleigh,NC,2,202.718954248366,3.738562091503268,1,1,North Carolina
68657,the-capital-grille-raleigh-2,The Capital Grille,357,Seafood,4.0,35.83827951,-78.64082964,Raleigh,NC,2,202.718954248366,3.738562091503268,1,1,North Carolina
884452,42nd-street-oyster-bar-and-seafood-grill-raleigh,42nd Street Oyster Bar & Seafood Grill,654,Seafood,4.0,35.7831199,-78.64639,Raleigh,NC,3,688.9,4.125,0,0,North Carolina
90,cape-fear-seafood-company-raleigh-6,Cape Fear Seafood Company ,91,Seafood,4.5,35.789673,-78.660032,Raleigh,NC,2,202.718954248366,3.738562091503268,1,0,North Carolina
9429,firebirds-wood-fired-grill-raleigh,Firebirds Wood Fired Grill,399,Seafood,4.0,35.8377441951746,-78.6427340272613,Raleigh,NC,2,202.718954248366,3.738562091503268,1,1,North Carolina
67,masons-famous-lobster-rolls-raleigh-raleigh,Mason's Famous Lobster Rolls - Raleigh,198,Seafood,4.0,35.83644558015849,-78.64367797276459,Raleigh,NC,2,202.718954248366,3.738562091503268,1,0,North Carolina
77,fleming-s-prime-steakhouse-and-wine-bar-raleigh-2,Fleming’s Prime Steakhouse & Wine Bar,340,Seafood,4.0,35.83848,-78.67528,Raleigh,NC,2,202.718954248366,3.738562091503268,1,1,North Carolina
27,chuan-cafe-raleigh-2,Chuan Cafe,215,Seafood,4.5,35.779097,-78.607032,Raleigh,NC,2,202.718954248366,3.738562091503268,1,1,North Carolina
41,lime-and-lemon-indian-grill-and-bar-raleigh-raleigh,Lime & Lemon Indian Grill & Bar - Raleigh,143,Seafood,4.5,35.789036,-78.675866,Raleigh,NC,2,202.718954248366,3.738562091503268,1,0,North Carolina
9546,reys-restaurant-raleigh-3,Rey's Restaurant,278,Seafood,4.0,35.7681884765625,-78.7414627075195,Raleigh,NC,2,202.718954248366,3.738562091503268,1,1,North Carolina
71484,perrys-steakhouse-and-grille-raleigh-raleigh,Perry's Steakhouse & Grille - Raleigh,316,Seafood,3.5,35.842421,-78.683261,Raleigh,NC,2,202.718954248366,3.738562091503268,0,1,North Carolina
53474,vinnies-steak-house-and-tavern-raleigh,Vinnie's Steak House & Tavern,135,Seafood,4.0,35.88157,-78.6452599,Raleigh,NC,2,202.718954248366,3.738562091503268,1,0,North Carolina
4480,seagate-seafood-and-sushi-raleigh-3,Seagate Seafood & Sushi,97,Seafood,4.0,35.84341,-78.579,Raleigh,NC,2,202.718954248366,3.738562091503268,1,0,North Carolina
3903,san-marcos-mexican-restaurant-raleigh-2,San Marcos Mexican Restaurant,174,Seafood,3.5,35.8370246887207,-78.6798324584961,Raleigh,NC,2,202.718954248366,3.738562091503268,0,0,North Carolina
3,shuckin-shack-oyster-bar-raleigh,Shuckin' Shack Oyster Bar,83,Seafood,3.5,35.813393,-78.627642,Raleigh,NC,2,202.718954248366,3.738562091503268,0,0,North Carolina
586,saltwater-seafood-and-fry-shack-raleigh,Saltwater Seafood & Fry Shack,76,Seafood,4.0,35.80312,-78.62099,Raleigh,NC,2,202.718954248366,3.738562091503268,1,0,North Carolina
4595,bonefish-grill-raleigh,Bonefish Grill,327,Seafood,3.5,35.8404341,-78.6433695,Raleigh,NC,2,202.718954248366,3.738562091503268,0,1,North Carolina
8,bahama-breeze-raleigh-4,Bahama Breeze,516,Seafood,3.0,35.828083,-78.620665,Raleigh,NC,3,688.9,4.125,0,0,North Carolina
5,salt-and-lime-cabo-grill-raleigh-2,Salt & Lime Cabo Grill,28,Seafood,4.5,35.871083,-78.715807,Raleigh,NC,1,26.93548387096774,3.564516129032258,1,1,North Carolina
6,crafty-crab-raleigh-2,Crafty Crab,73,Seafood,3.5,35.793234,-78.685086,Raleigh,NC,2,202.718954248366,3.738562091503268,0,0,North Carolina
58629,jacks-seafood-and-soul-food-restaurant-raleigh,Jack's Seafood & Soul Food Restaurant,138,Seafood,4.0,35.7797355651855,-78.6163177490234,Raleigh,NC,2,202.718954248366,3.738562091503268,1,0,North Carolina
839,rye-bar-and-southern-kitchen-raleigh,Rye Bar and Southern Kitchen,263,Seafood,3.5,35.77342072528275,-78.640051,Raleigh,NC,2,202.718954248366,3.738562091503268,0,1,North Carolina
4094,raleigh-crab-house-raleigh,Raleigh Crab House,155,Seafood,4.0,35.8452096,-78.5797551,Raleigh,NC,2,202.718954248366,3.738562091503268,1,0,North Carolina
7208,the-peddler-steak-house-raleigh,The Peddler Steak House,153,Seafood,3.5,35.854006,-78.701542,Raleigh,NC,2,202.718954248366,3.738562091503268,0,0,North Carolina
6,red-lobster-raleigh,Red Lobster,154,Seafood,3.5,35.841072,-78.610643,Raleigh,NC,2,202.718954248366,3.738562091503268,0,0,North Carolina
2837,tryseafood-cary-cary,TrySeafood Cary,81,Seafood,4.5,35.74717,-78.74323,Cary,NC,2,202.718954248366,3.738562091503268,1,0,North Carolina
595,oak-city-fish-and-chips-raleigh-6,Oak City Fish and Chips,121,Seafood,3.5,35.779049324278155,-78.64568117281289,Raleigh,NC,2,202.718954248366,3.738562091503268,0,0,North Carolina
34,cousins-maine-lobster-restaurant-raleigh-raleigh,Cousins Maine Lobster Restaurant - Raleigh,69,Seafood,4.0,35.77945,-78.6456805,Raleigh,NC,2,202.718954248366,3.738562091503268,1,0,North Carolina
886,m-sushi-cary-cary,M Sushi - Cary,44,Seafood,4.5,35.780262968407506,-78.75806537274049,Cary,NC,1,26.93548387096774,3.564516129032258,1,1,North Carolina
347248,east-end-bistrot-raleigh,East End Bistrot,17,Seafood,4.0,35.80894,-78.62268,Raleigh,NC,1,26.93548387096774,3.564516129032258,1,0,North Carolina
2759153,the-village-grill-raleigh,The Village Grill,228,Seafood,3.0,35.8949999320226,-78.6214823925209,Raleigh,NC,2,202.718954248366,3.738562091503268,0,1,North Carolina
891,nc-seafood-restaurant-raleigh,NC Seafood Restaurant,213,Seafood,3.5,35.7636464080394,-78.6627099315994,Raleigh,NC,2,202.718954248366,3.738562091503268,0,1,North Carolina
86,b-b-and-y-raleigh,B B & Y,48,Seafood,4.5,35.908684,-78.766994,Raleigh,NC,1,26.93548387096774,3.564516129032258,1,1,North Carolina
855,cary-crab-house-cary,Cary Crab House,375,Seafood,4.0,35.75966263525702,-78.74058076039462,Cary,NC,2,202.718954248366,3.738562091503268,1,1,North Carolina
38,nantucket-grill-raleigh-raleigh-2,Nantucket Grill - Raleigh,260,Seafood,3.5,35.90788,-78.58764,Raleigh,NC,2,202.718954248366,3.738562091503268,0,1,North Carolina
478,carrabbas-italian-grill-raleigh-2,Carrabba's Italian Grill,176,Seafood,3.0,35.8525390625,-78.5814361572266,Raleigh,NC,2,202.718954248366,3.738562091503268,0,0,North Carolina
27826,mariscos-nayarit-2-raleigh,Mariscos Nayarit 2,16,Seafood,4.0,35.725265700555404,-78.65223304110445,Raleigh,NC,1,26.93548387096774,3.564516129032258,1,0,North Carolina
74,america-s-best-wings-no-title,America’s Best Wings,18,Seafood,4.0,35.83414562523409,-78.58413455999457,Raleigh,NC,1,26.93548387096774,3.564516129032258,1,0,North Carolina
3481,bonefish-grill-cary,Bonefish Grill,288,Seafood,3.5,35.8275563581887,-78.7716293334961,Cary,NC,2,202.718954248366,3.738562091503268,0,1,North Carolina
2771,mariscos-nayarit-raleigh,Mariscos Nayarit,61,Seafood,3.5,35.871276,-78.58255,Raleigh,NC,1,26.93548387096774,3.564516129032258,0,1,North Carolina
318,captain-stanleys-calabash-seafood-raleigh,Captain Stanley's Calabash Seafood,70,Seafood,3.5,35.7340278625488,-78.6495590209961,Raleigh,NC,2,202.718954248366,3.738562091503268,0,0,North Carolina
69,la-terraza-restaurant-raleigh,La Terraza Restaurant,110,Seafood,3.0,35.77854521621758,-78.67670474364618,Raleigh,NC,2,202.718954248366,3.738562091503268,0,0,North Carolina
9,ruths-chris-steak-house-cary,Ruth's Chris Steak House,174,Seafood,3.5,35.82669685229889,-78.77111453268967,Cary,NC,2,202.718954248366,3.738562091503268,0,0,North Carolina
436,china-star-raleigh,China Star,30,Seafood,4.0,35.72443,-78.54819,Raleigh,NC,1,26.93548387096774,3.564516129032258,1,1,North Carolina
1,goodness-graceus-brentwood,Goodness GraceUs,8,Seafood,4.5,35.8505249023438,-78.5702056884766,Brentwood,NC,1,26.93548387096774,3.564516129032258,1,0,North Carolina
53798,mariscos-muelle-de-san-blas-raleigh,Mariscos Muelle De San Blas,21,Seafood,3.5,35.72149,-78.65211,Raleigh,NC,1,26.93548387096774,3.564516129032258,0,0,North Carolina
481,mayflower-seafood-restaurant-raleigh,Mayflower Seafood Restaurant,149,Seafood,2.5,35.8246117,-78.5881271,Raleigh,NC,2,202.718954248366,3.738562091503268,0,0,North Carolina
332160,oak-city-fish-and-chips-raleigh-7,Oak City Fish & Chips,50,Seafood,3.0,35.74571,-78.59888,Raleigh,NC,1,26.93548387096774,3.564516129032258,0,1,North Carolina
21,red-lobster-cary,Red Lobster,162,Seafood,3.0,35.761003,-78.74311201165666,Cary,NC,2,202.718954248366,3.738562091503268,0,0,North Carolina
32,jacks-seafood-and-soul-food-raleigh,Jack's Seafood and Soul Food,31,Seafood,3.0,35.73196,-78.5601,Raleigh,NC,1,26.93548387096774,3.564516129032258,0,1,North Carolina
927180,food-lion-raleigh-14,Food Lion,8,Seafood,3.5,35.89932,-78.65461,Raleigh,NC,1,26.93548387096774,3.564516129032258,0,0,North Carolina
2944,lucky-chicken-peruvian-cuisine-cary,Lucky Chicken Peruvian Cuisine,112,Seafood,3.0,35.8310882619296,-78.7698546422918,Cary,NC,2,202.718954248366,3.738562091503268,0,0,North Carolina
8,finger-lickin-fried-thingz-raleigh,Finger Lickin Fried Thingz,7,Seafood,2.5,35.7658344,-78.6320494,Raleigh,NC,1,26.93548387096774,3.564516129032258,0,0,North Carolina
7,stella-mare-ristorante-and-pizzeria-raleigh,Stella Mare Ristorante & Pizzeria,7,Seafood,3.5,35.8865265498783,-78.6600856972754,Raleigh,NC,1,26.93548387096774,3.564516129032258,0,0,North Carolina
49635,mi-peru-peruvian-cuisine-garner,Mi Peru Peruvian Cuisine,2,Seafood,5.0,35.72324,-78.64816,Garner,NC,1,26.93548387096774,3.564516129032258,1,0,North Carolina
9981,lobster-dogs-raleigh,Lobster Dogs,2,Seafood,2.5,35.77338,-78.63355,Raleigh,NC,1,26.93548387096774,3.564516129032258,0,0,North Carolina
61137,soul-seafood-cafe-food-truck-raleigh,Soul Seafood Cafe’ Food Truck,2,Seafood,3.0,35.76995,-78.61873,Raleigh,NC,1,26.93548387096774,3.564516129032258,0,0,North Carolina
9346,1618-west-seafood-grill-greensboro-3,1618 West Seafood Grill,277,Seafood,4.5,36.07599,-79.81522,Greensboro,NC,2,202.718954248366,3.738562091503268,1,1,North Carolina
588,fleming-s-prime-steakhouse-and-wine-bar-greensboro-4,Fleming’s Prime Steakhouse & Wine Bar,207,Seafood,4.0,36.08682101073872,-79.84019600000002,Greensboro,NC,2,202.718954248366,3.738562091503268,1,1,North Carolina
388,mjs-restaurant-and-catering-greensboro,MJ's Restaurant & Catering,106,Seafood,4.5,36.0885,-79.88428,Greensboro,NC,2,202.718954248366,3.738562091503268,1,0,North Carolina
238,pastabilities-greensboro,Pastabilities,167,Seafood,4.0,36.09223,-79.81344,Greensboro,NC,2,202.718954248366,3.738562091503268,1,0,North Carolina
4726,village-tavern-greensboro,Village Tavern,313,Seafood,4.0,36.11923075093201,-79.84427053170367,Greensboro,NC,2,202.718954248366,3.738562091503268,1,1,North Carolina
639,el-alebrije-mexican-restaurant-greensboro,El Alebrije Mexican Restaurant,25,Seafood,4.5,36.06954309837107,-79.8789938078066,Greensboro,NC,1,26.93548387096774,3.564516129032258,1,0,North Carolina
949,harpers-restaurant-greensboro,Harper's Restaurant,206,Seafood,3.5,36.08466,-79.83211,Greensboro,NC,2,202.718954248366,3.738562091503268,0,1,North Carolina
27,reel-seafood-grill-greensboro,Reel Seafood Grill,150,Seafood,4.0,36.127301,-79.8587919,Greensboro,NC,2,202.718954248366,3.738562091503268,1,0,North Carolina
439,char-bar-7-greensboro,Char Bar 7,204,Seafood,3.5,36.11952,-79.8296699,Greensboro,NC,2,202.718954248366,3.738562091503268,0,1,North Carolina
21111,el-mariachi-mexican-bar-and-grill-greensboro-2,El Mariachi Mexican Bar & Grill,56,Seafood,4.0,36.0308,-79.86582,Greensboro,NC,1,26.93548387096774,3.564516129032258,1,1,North Carolina
9936,the-full-moon-oyster-bar-jamestown-jamestown,The Full Moon Oyster Bar - Jamestown,399,Seafood,4.5,35.993937,-79.935966,Jamestown,NC,2,202.718954248366,3.738562091503268,1,1,North Carolina
75,red-crab-greensboro-greensboro,Red Crab - Greensboro,230,Seafood,4.0,36.046766,-79.8366611,Greensboro,NC,2,202.718954248366,3.738562091503268,1,1,North Carolina
555,mr-kirin-greensboro,Mr. Kirin Japanese Kitchen,48,Seafood,4.5,36.11663394545126,-79.8287063,Greensboro,NC,1,26.93548387096774,3.564516129032258,1,1,North Carolina
152935,ruths-chris-steak-house-greensboro,Ruth's Chris Steak House,147,Seafood,3.5,36.09119,-79.818981,Greensboro,NC,2,202.718954248366,3.738562091503268,0,0,North Carolina
4,the-captains-table-greensboro,The Captain's Table,65,Seafood,4.0,36.069616,-79.866569,Greensboro,NC,1,26.93548387096774,3.564516129032258,1,1,North Carolina
7530,blue-water-grille-high-point,Blue Water Grille,102,Seafood,4.5,35.9766058873962,-80.0177373737097,High Point,NC,2,202.718954248366,3.738562091503268,1,0,North Carolina
133,shrimply-delicious-seafood-greensboro,Shrimply Delicious Seafood,49,Seafood,4.5,36.102341,-79.782485,Greensboro,NC,1,26.93548387096774,3.564516129032258,1,1,North Carolina
329,bonefish-grill-greensboro,Bonefish Grill,167,Seafood,3.5,36.04212,-79.8378,Greensboro,NC,2,202.718954248366,3.738562091503268,0,0,North Carolina
77,98-asian-bistro-high-point,98 Asian Bistro,196,Seafood,4.5,35.97902,-80.01987,High Point,NC,2,202.718954248366,3.738562091503268,1,0,North Carolina
18,tripps-restaurant-greensboro-2,Tripps Restaurant,151,Seafood,3.5,36.05634380641472,-79.89623737281536,Greensboro,NC,2,202.718954248366,3.738562091503268,0,0,North Carolina
935,aunt-e-s-southern-cuisine-greensboro,Aunt E’s Southern Cuisine,21,Seafood,4.0,36.1042,-79.81821,Greensboro,NC,1,26.93548387096774,3.564516129032258,1,0,North Carolina
93,seafood-destiny-greensboro,Seafood Destiny,72,Seafood,4.5,36.029741,-79.867943,Greensboro,NC,2,202.718954248366,3.738562091503268,1,0,North Carolina
682,luna-mexican-seafood-bar-and-grill-greensboro,Luna Mexican Seafood Bar & Grill,58,Seafood,3.5,36.1331503,-79.7970728,Greensboro,NC,1,26.93548387096774,3.564516129032258,0,1,North Carolina
3,harbor-one-high-point,Harbor One,30,Seafood,5.0,35.9643912,-80.01083,High Point,NC,1,26.93548387096774,3.564516129032258,1,1,North Carolina
604,captain-bills-seafood-and-steak-restaurant-greensboro,Captain Bill's Seafood & Steak Restaurant,62,Seafood,3.5,36.076335,-79.907592,Greensboro,NC,1,26.93548387096774,3.564516129032258,0,1,North Carolina
3,crazy-crab-seafood-and-grill-greensboro,Crazy Crab Seafood & Grill,120,Seafood,3.0,36.059346,-79.89125,Greensboro,NC,2,202.718954248366,3.738562091503268,0,0,North Carolina
31,red-lobster-greensboro,Red Lobster,131,Seafood,2.5,36.054927,-79.8973609,Greensboro,NC,2,202.718954248366,3.738562091503268,0,0,North Carolina
3020,marisco-sayulita-nayarit-greensboro,Marisco Sayulita Nayarit,46,Seafood,3.5,36.074991,-79.95761,Greensboro,NC,1,26.93548387096774,3.564516129032258,0,1,North Carolina
434,carrabbas-italian-grill-greensboro-8,Carrabba's Italian Grill,171,Seafood,3.0,36.0427299,-79.8434407,Greensboro,NC,2,202.718954248366,3.738562091503268,0,0,North Carolina
834,oakcrest-family-restaurant-greensboro,Oakcrest Family Restaurant,58,Seafood,3.0,36.10408352256168,-79.82550497538949,Greensboro,NC,1,26.93548387096774,3.564516129032258,0,1,North Carolina
8,culichi-mexican-seafood-and-grill-2-greensboro,Culichi Mexican Seafood & Grill 2,37,Seafood,3.0,36.0467572819831,-79.8379115242189,Greensboro,NC,1,26.93548387096774,3.564516129032258,0,1,North Carolina
10,reckless-rolls-greensboro,Reckless Rolls,11,Seafood,4.5,36.087,-79.88729,Greensboro,NC,1,26.93548387096774,3.564516129032258,1,0,North Carolina
92,tides-inn-steak-and-seafood-greensboro,Tides Inn Steak & Seafood,61,Seafood,3.5,36.035979,-79.8603541,Greensboro,NC,1,26.93548387096774,3.564516129032258,0,1,North Carolina
3402,bayside-seafood-family-restaurant-greensboro,Bayside Seafood Family Restaurant,52,Seafood,3.5,36.0870170593262,-79.7289276123047,Greensboro,NC,1,26.93548387096774,3.564516129032258,0,1,North Carolina
5753,steak-street-high-point,Steak Street,197,Seafood,3.0,36.0613,-79.96325,High Point,NC,2,202.718954248366,3.738562091503268,0,0,North Carolina
86664,chop-house-at-mendenhall-high-point-2,Chop House  At Mendenhall,107,Seafood,3.5,36.048096,-79.961148,High Point,NC,2,202.718954248366,3.738562091503268,0,0,North Carolina
4577,cajun-seafood-and-grill-greensboro,Cajun Seafood & Grill,6,Seafood,4.5,36.016185,-79.805577,Greensboro,NC,1,26.93548387096774,3.564516129032258,1,0,North Carolina
6234925,the-juicy-crab-greensboro-greensboro,The Juicy Crab - Greensboro,16,Seafood,3.5,36.05827,-79.88844,Greensboro,NC,1,26.93548387096774,3.564516129032258,0,0,North Carolina
966,ridge-shrimp-and-oyster-oak-ridge,Ridge Shrimp & Oyster,26,Seafood,4.5,36.17471,-79.99295,Oak Ridge,NC,1,26.93548387096774,3.564516129032258,1,0,North Carolina
9838,crab-du-jour-greensboro,Crab Du Jour,29,Seafood,3.5,36.051151,-79.901033,Greensboro,NC,1,26.93548387096774,3.564516129032258,0,1,North Carolina
268,mariscos-los-koras-greensboro-3,Mariscos Los Koras,21,Seafood,3.0,36.0127820213,-79.8040542585,Greensboro,NC,1,26.93548387096774,3.564516129032258,0,0,North Carolina
9884,off-the-hook-seafood-and-chicken-greensboro,Off The Hook Seafood & Chicken,4,Seafood,5.0,36.07270050048828,-79.79389953613281,Greensboro,NC,1,26.93548387096774,3.564516129032258,1,0,North Carolina
746,shogun-japanese-restaurant-high-point,Shogun Japanese Restaurant,62,Seafood,3.5,35.99168,-80.03059,High Point,NC,1,26.93548387096774,3.564516129032258,0,1,North Carolina
778539,dirty-fries-greensboro-2,Dirty Fries,13,Seafood,3.5,36.05168,-79.83406,Greensboro,NC,1,26.93548387096774,3.564516129032258,0,0,North Carolina
47,hopkins-poultry-browns-summit,Hopkins Poultry,6,Seafood,5.0,36.2168503,-79.7224884,Browns Summit,NC,1,26.93548387096774,3.564516129032258,1,0,North Carolina
42,roza-mayflower-seafood-restaurant-greensboro-2,Roza Mayflower Seafood Restaurant,45,Seafood,2.5,36.02833,-79.80121,Greensboro,NC,1,26.93548387096774,3.564516129032258,0,1,North Carolina
872,gate-city-tavern-greensboro-3,Gate City Tavern,9,Seafood,3.0,36.06102190560424,-79.81605201388194,Greensboro,NC,1,26.93548387096774,3.564516129032258,0,0,North Carolina
66,go-yaki-to-go-greensboro,Go Yaki To Go,6,Seafood,4.0,36.09116,-79.75778,Greensboro,NC,1,26.93548387096774,3.564516129032258,1,0,North Carolina
7,stephanies-restaurant-greensboro-3,Stephanie's Restaurant,26,Seafood,3.0,36.04004415365429,-79.80034560189588,Greensboro,NC,1,26.93548387096774,3.564516129032258,0,0,North Carolina
2020,skippers-seafood-high-point,Skipper's Seafood,34,Seafood,3.5,35.9306488037109,-79.9883041381836,High Point,NC,1,26.93548387096774,3.564516129032258,0,1,North Carolina
4,captain-ds-greensboro,Captain D's,19,Seafood,1.5,36.112411,-79.752527,Greensboro,NC,1,26.93548387096774,3.564516129032258,0,0,North Carolina
952072,ocean-blue-seafood-restaurant-greensboro,Ocean Blue Seafood Restaurant,16,Seafood,3.0,36.0417213,-79.7736282,Greensboro,NC,1,26.93548387096774,3.564516129032258,0,0,North Carolina
13185,red-crab-greensboro,Red Crab,3,Seafood,3.5,36.10784,-79.75425,Greensboro,NC,1,26.93548387096774,3.564516129032258,0,0,North Carolina
778,taste-good-greensboro,Taste Good,4,Seafood,3.5,36.00743,-79.80717,Greensboro,NC,1,26.93548387096774,3.564516129032258,0,0,North Carolina
326,snackbar-fish-and-wing-spot-greensboro,Snackbar Fish & Wing Spot,1,Seafood,5.0,36.08474,-79.77073,Greensboro,NC,1,26.93548387096774,3.564516129032258,1,0,North Carolina
390,american-deli-greensboro-2,American Deli,1,Seafood,1.0,36.040593,-79.792025,Greensboro,NC,1,26.93548387096774,3.564516129032258,0,0,North Carolina
88894,j-and-js-crab-spot-jamestown,J&Js Crab Spot,1,Seafood,5.0,35.991968668699734,-79.95219353227135,Jamestown,NC,1,26.93548387096774,3.564516129032258,1,0,North Carolina
93,cherrys-fish-and-chips-greensboro,Cherry's Fish & Chips,1,Seafood,1.0,36.0725708007812,-79.8861999511719,Greensboro,NC,1,26.93548387096774,3.564516129032258,0,0,North Carolina
576,j-and-j-crabspot-jamestown,J & J Crabspot,1,Seafood,4.0,35.9930303291405,-79.9524544748561,Jamestown,NC,1,26.93548387096774,3.564516129032258,1,0,North Carolina
85,milners-american-southern-winston-salem,Milner's American Southern,297,Seafood,4.0,36.0867,-80.29086,Winston-Salem,NC,2,202.718954248366,3.738562091503268,1,1,North Carolina
2,village-tavern-winston-salem,Village Tavern,379,Seafood,4.0,36.12677927209783,-80.28602566871717,Winston-Salem,NC,2,202.718954248366,3.738562091503268,1,1,North Carolina
47,1703-restaurant-and-catering-winston-salem,1703 Restaurant,59,Seafood,4.5,36.106977496954926,-80.26756286011887,Winston Salem,NC,1,26.93548387096774,3.564516129032258,1,1,North Carolina
81,village-tavern-winston-salem-2,Village Tavern,452,Seafood,4.0,36.06275029599482,-80.31019917555948,Winston-salem,NC,3,688.9,4.125,0,0,North Carolina
5755,ryans-restaurant-steaks-chops-and-seafood-winston-salem,Ryan's Restaurant -Steaks-Chops & Seafood,197,Seafood,4.0,36.12486752079133,-80.2627067,Winston Salem,NC,2,202.718954248366,3.738562091503268,1,0,North Carolina
8,the-sherwood-winston-salem,The Sherwood,83,Seafood,4.0,36.1144004032557,-80.3136561065912,Winston-Salem,NC,2,202.718954248366,3.738562091503268,1,0,North Carolina
18589,firebirds-wood-fired-grill-winston-salem,Firebirds Wood Fired Grill,286,Seafood,3.5,36.066314402206,-80.324502434376,Winston-Salem,NC,2,202.718954248366,3.738562091503268,0,1,North Carolina
1,pancho-villas-mexican-and-seafood-restaurant-winston-salem,Pancho Villa's Mexican & Seafood Restaurant,120,Seafood,4.0,36.082927756702,-80.2947174728719,Winston Salem,NC,2,202.718954248366,3.738562091503268,1,0,North Carolina
59,carrabbas-italian-grill-winston-salem-2,Carrabba's Italian Grill,133,Seafood,3.5,36.08643917432013,-80.28888,Winston Salem,NC,2,202.718954248366,3.738562091503268,0,0,North Carolina
2387,razzoos-cajun-cafe-winston-salem-2,Razzoo's Cajun Cafe,48,Seafood,3.5,36.08509607142909,-80.2940115027297,Winston-Salem,NC,1,26.93548387096774,3.564516129032258,0,1,North Carolina
2470,forsyth-seafood-market-and-cafe-winston-salem,Forsyth Seafood Market & Cafe,68,Seafood,4.0,36.09664298,-80.2289877,Winston-Salem,NC,1,26.93548387096774,3.564516129032258,1,1,North Carolina
488905,arigato-japanese-steak-and-seafood-house-winston-salem,Arigato Japanese Steak & Seafood House,130,Seafood,3.5,36.0825042724609,-80.2945709228516,Winston Salem,NC,2,202.718954248366,3.738562091503268,0,0,North Carolina
51,the-carriage-house-restaurant-winston-salem,The Carriage House Restaurant,57,Seafood,4.0,36.0747443139553,-80.3026858717203,Winston Salem,NC,1,26.93548387096774,3.564516129032258,1,1,North Carolina
1583,roar-winston-salem,Roar,59,Seafood,3.5,36.10267039928133,-80.24515834345557,Winston-Salem,NC,1,26.93548387096774,3.564516129032258,0,1,North Carolina
3986,butcher-and-bull-winston-salem,Butcher & Bull,57,Seafood,3.5,36.09926,-80.24659,Winston-Salem,NC,1,26.93548387096774,3.564516129032258,0,1,North Carolina
19922,smittys-grille-kernersville-2,Smitty's Grille,167,Seafood,4.5,36.112451,-80.089249,Kernersville,NC,2,202.718954248366,3.738562091503268,1,0,North Carolina
2415306,the-full-moon-oyster-bar-clemmons-3,The Full Moon Oyster Bar,143,Seafood,4.0,36.0745133,-80.390809,Clemmons,NC,2,202.718954248366,3.738562091503268,1,0,North Carolina
1,2520-tavern-clemmons,2520 Tavern,165,Seafood,4.0,36.029541,-80.383374,Clemmons,NC,2,202.718954248366,3.738562091503268,1,0,North Carolina
93,hawgfish-shack-bbq-and-seafood-winston-salem,Hawgfish Shack BBQ & Seafood,78,Seafood,4.0,36.02681754753667,-80.3627736,Winston-Salem,NC,2,202.718954248366,3.738562091503268,1,0,North Carolina
520312,red-crab-seafood-winston-salem,Red Crab Seafood,63,Seafood,3.5,36.06578,-80.31992,Winston-Salem,NC,1,26.93548387096774,3.564516129032258,0,1,North Carolina
5401,crazy-crab-seafood-and-grill-winston-salem,Crazy Crab Seafood & Grill,128,Seafood,3.5,36.07545619719599,-80.25806349999999,Winston Salem,NC,2,202.718954248366,3.738562091503268,0,0,North Carolina
75,north-point-grill-winston-salem,North Point Grill,59,Seafood,4.0,36.150218,-80.274926,Winston Salem,NC,1,26.93548387096774,3.564516129032258,1,1,North Carolina
804,mariscos-marlin-winstom-salem,Mariscos Marlin,30,Seafood,4.0,36.053229,-80.323204,Winstom-Salem,NC,1,26.93548387096774,3.564516129032258,1,1,North Carolina
85658705,walkertown-seafood-shack-walkertown,Walkertown Seafood Shack,156,Seafood,4.0,36.1671,-80.14836,Walkertown,NC,2,202.718954248366,3.738562091503268,1,0,North Carolina
248,kings-crab-shack-winston-salem-2,King's Crab Shack,46,Seafood,3.5,36.0638422329139,-80.3020253247783,Winston-Salem,NC,1,26.93548387096774,3.564516129032258,0,1,North Carolina
1,los-muelles-mexican-seafood-and-grill-clemmons,Los Muelles Mexican Seafood & Grill,22,Seafood,4.5,36.036587,-80.384533,Clemmons,NC,1,26.93548387096774,3.564516129032258,1,0,North Carolina
8494182,district-924-winston-salem,District 924,48,Seafood,3.5,36.08247810648319,-80.24355283622238,Winston-Salem,NC,1,26.93548387096774,3.564516129032258,0,1,North Carolina
9899,red-lobster-winston-salem,Red Lobster,70,Seafood,2.5,36.068638,-80.306048,Winston Salem,NC,2,202.718954248366,3.738562091503268,0,0,North Carolina
947,kanpai-japanese-steak-and-seafood-house-winston-salem,Kanpai Japanese Steak & Seafood House,73,Seafood,3.0,36.07381,-80.30397,Winston Salem,NC,2,202.718954248366,3.738562091503268,0,0,North Carolina
15369,crafty-crab-winston-salem,Crafty Crab,23,Seafood,3.5,36.19034,-80.27467,Winston-Salem,NC,1,26.93548387096774,3.564516129032258,0,0,North Carolina
58,clemmons-kitchen-clemmons,Clemmons Kitchen,78,Seafood,3.5,36.0210235852388,-80.3794097900391,Clemmons,NC,2,202.718954248366,3.738562091503268,0,0,North Carolina
53688,coronet-seafood-rural-hall,Coronet Seafood Restaurant,42,Seafood,4.0,36.2377183160229,-80.2994005174399,Rural Hall,NC,1,26.93548387096774,3.564516129032258,1,1,North Carolina
54,kjs-soul-food-and-seafood-restaurant-bermuda-run,kJ's Soul Food & Seafood Restaurant,12,Seafood,4.5,36.00982069084536,-80.4419769705198,Bermuda Run,NC,1,26.93548387096774,3.564516129032258,1,0,North Carolina
509,mayflower-seafood-restaurant-winston-salem,Mayflower Seafood Restaurant,48,Seafood,2.5,36.07902,-80.25897,Winston Salem,NC,1,26.93548387096774,3.564516129032258,0,1,North Carolina
9694,blue-crab-seafood-bar-winston-salem,Blue Crab Seafood Bar,5,Seafood,4.0,36.10266,-80.24514,Winston-Salem,NC,1,26.93548387096774,3.564516129032258,1,0,North Carolina
808,kotta-japanese-restaurant-winston-salem,Kotta Japanese Restaurant,20,Seafood,3.5,36.069109,-80.322078,Winston Salem,NC,1,26.93548387096774,3.564516129032258,0,0,North Carolina
31,brother-cluckers-kernersville,Brother Cluckers,24,Seafood,3.5,36.077934205624,-80.10768056702292,Kernersville,NC,1,26.93548387096774,3.564516129032258,0,0,North Carolina
556535,chinas-best-lewisville,China's Best,18,Seafood,3.5,36.0786630213261,-80.3897014260292,Lewisville,NC,1,26.93548387096774,3.564516129032258,0,0,North Carolina
2053,little-aris-japanese-kitchen-winston-salem,Little Ari's Japanese Kitchen,10,Seafood,3.0,36.05984,-80.3104,Winston Salem,NC,1,26.93548387096774,3.564516129032258,0,0,North Carolina
593,red-lobster-winston-salem-2,Red Lobster,6,Seafood,3.0,36.06837,-80.30853,Winston-Salem,NC,1,26.93548387096774,3.564516129032258,0,0,North Carolina
24,mayflower-seafood-rural-hall,Mayflower Seafood,34,Seafood,3.5,36.2103944,-80.3010877,Rural Hall,NC,1,26.93548387096774,3.564516129032258,0,1,North Carolina
720,the-new-dragon-palace-kernersville-2,The New Dragon Palace,21,Seafood,3.0,36.1117107,-80.0873849,Kernersville,NC,1,26.93548387096774,3.564516129032258,0,0,North Carolina
63,mo-s-chicken-and-groceries-2-go-winston-salem,Mo’s Chicken and Groceries 2-Go,1,Seafood,3.0,36.13133341967507,-80.24283098183473,Winston-Salem,NC,1,26.93548387096774,3.564516129032258,0,0,North Carolina
4063,fishers-of-men-seafood-winston-salem,Fishers of Men Seafood,1,Seafood,5.0,36.1692117,-80.2637555,Winston-Salem,NC,1,26.93548387096774,3.564516129032258,1,0,North Carolina
89204,long-john-silvers-winston-salem-5,Long John Silver's,21,Seafood,1.0,36.06722,-80.3199099,Winston Salem,NC,1,26.93548387096774,3.564516129032258,0,0,North Carolina
33511,goodness-gracious-of-ws-winston-salem,Goodness Gracious Of Ws,1,Seafood,3.0,36.1093,-80.21378,Winston-Salem,NC,1,26.93548387096774,3.564516129032258,0,0,North Carolina
5043,long-john-silvers-winston-salem-4,Long John Silver's,6,Seafood,1.5,36.17688,-80.2747,Winston Salem,NC,1,26.93548387096774,3.564516129032258,0,0,North Carolina
25630,m-sushi-durham,M Sushi,618,Seafood,4.5,35.9973276145175,-78.9011884153442,Durham,NC,3,688.9,4.125,1,0,North Carolina
99,burger-bach-durham,Burger Bach,460,Seafood,4.0,36.009727,-78.9224296,Durham,NC,3,688.9,4.125,0,0,North Carolina
9,mi-perú-peruvian-cuisine-durham,Mi Perú Peruvian Cuisine,192,Seafood,4.5,35.964973248341806,-78.95589113005215,Durham,NC,2,202.718954248366,3.738562091503268,1,0,North Carolina
16,parizade-durham,Parizade,283,Seafood,4.0,36.008105,-78.925739,Durham,NC,2,202.718954248366,3.738562091503268,1,1,North Carolina
6514,saltbox-seafood-joint-durham-3,Saltbox Seafood Joint,257,Seafood,4.0,35.97395,-78.92917,Durham,NC,2,202.718954248366,3.738562091503268,1,1,North Carolina
3,el-chapin-durham-3,El Chapin,149,Seafood,4.5,35.9628606888263,-78.9775799126892,Durham,NC,2,202.718954248366,3.738562091503268,1,0,North Carolina
2908,nzingas-kitchen-durham,Nzinga's Kitchen,140,Seafood,4.0,35.9855957,-78.8990021,Durham,NC,2,202.718954248366,3.738562091503268,1,0,North Carolina
1443,nantucket-grill-durham-durham-2,Nantucket Grill - Durham,358,Seafood,3.5,35.92079371772815,-78.92961909474263,Durham,NC,2,202.718954248366,3.738562091503268,0,1,North Carolina
710003,shuckin-shack-oyster-bar-durham,Shuckin' Shack Oyster Bar,98,Seafood,4.0,36.00797,-78.9265,Durham,NC,2,202.718954248366,3.738562091503268,1,0,North Carolina
93963,locals-seafood-restaurant-and-market-durham-2,Locals Seafood Restaurant & Market,29,Seafood,4.5,36.001164196571175,-78.9013516,Durham,NC,1,26.93548387096774,3.564516129032258,1,1,North Carolina
7,sho-nuff-seafood-durham,Sho Nuff Seafood,89,Seafood,4.5,36.0157887,-78.91908618999874,Durham,NC,2,202.718954248366,3.738562091503268,1,0,North Carolina
6184,teds-montana-grill-renaissance-center-durham,Ted's Montana Grill - Renaissance Center,346,Seafood,3.5,35.9036722227141,-78.9359454427219,Durham,NC,2,202.718954248366,3.738562091503268,0,1,North Carolina
51535,red-crab-juicy-seafood-durham-durham,Red Crab Juicy Seafood - Durham,77,Seafood,4.0,35.96215,-78.97876,Durham,NC,2,202.718954248366,3.738562091503268,1,0,North Carolina
1056,monterrey-mexican-grill-durham-2,Monterrey Mexican Grill,51,Seafood,4.0,35.9612397,-78.97924119999999,Durham,NC,1,26.93548387096774,3.564516129032258,1,1,North Carolina
0,firebirds-wood-fired-grill-durham,Firebirds Wood Fired Grill,401,Seafood,3.5,35.9047788950879,-78.9438108114372,Durham,NC,2,202.718954248366,3.738562091503268,0,1,North Carolina
85952,stoney-river-chapel-hill-3,Stoney River,269,Seafood,4.0,35.928149170928975,-79.02867210510828,Chapel Hill,NC,2,202.718954248366,3.738562091503268,1,1,North Carolina
5406,bin-54-steak-and-cellar-chapel-hill-2,Bin 54 Steak & Cellar,244,Seafood,4.0,35.909091,-79.025241,Chapel Hill,NC,2,202.718954248366,3.738562091503268,1,1,North Carolina
5,the-crabby-patty-durham-4,The Crabby Patty,40,Seafood,4.5,36.006945789404234,-78.88597414320544,Durham,NC,1,26.93548387096774,3.564516129032258,1,1,North Carolina
5,big-t-s-fry-fish-durham,Big T’s Fry Fish,74,Seafood,4.5,35.9236392127387,-78.8439073815767,Durham,NC,2,202.718954248366,3.738562091503268,1,0,North Carolina
50,crab-sea-durham,Crab Sea,61,Seafood,4.0,35.899915,-78.894519,Durham,NC,1,26.93548387096774,3.564516129032258,1,1,North Carolina
37321,bonefish-grill-durham,Bonefish Grill,273,Seafood,3.5,35.901216,-78.96027378587178,Durham,NC,2,202.718954248366,3.738562091503268,0,1,North Carolina
94,tony-romas-durham-durham,Tony Roma's Durham,26,Seafood,4.0,35.8849856125028,-78.84565943791033,Durham,NC,1,26.93548387096774,3.564516129032258,1,0,North Carolina
27508,bennett-point-grill-durham,Bennett Point Grill,76,Seafood,4.0,36.0327806,-78.9796136,Durham,NC,2,202.718954248366,3.738562091503268,1,0,North Carolina
4570,squids-chapel-hill,Squid's,222,Seafood,4.0,35.9315425797124,-79.0249800682068,Chapel Hill,NC,2,202.718954248366,3.738562091503268,1,1,North Carolina
13811,skrimp-shack-durham-2,Skrimp Shack,108,Seafood,4.0,36.0483150059506,-78.9039852842689,Durham,NC,2,202.718954248366,3.738562091503268,1,0,North Carolina
209747,tasty-stop-durham-3,Tasty Stop,49,Seafood,4.5,36.048587,-78.90488,Durham,NC,1,26.93548387096774,3.564516129032258,1,1,North Carolina
57,mayflower-xvi-seafood-restaurant-durham,Mayflower XVI Seafood Restaurant,72,Seafood,3.0,35.97141,-78.95431,Durham,NC,2,202.718954248366,3.738562091503268,0,0,North Carolina
885096,carrabbas-italian-grill-durham-3,Carrabba's Italian Grill,139,Seafood,3.5,35.9558131,-78.9928096,Durham,NC,2,202.718954248366,3.738562091503268,0,0,North Carolina
27,nantucket-grill-chapel-hill-chapel-hill,Nantucket Grill - Chapel Hill,277,Seafood,3.5,35.912738,-78.984025,Chapel Hill,NC,2,202.718954248366,3.738562091503268,0,1,North Carolina
2,sams-southern-eatery-durham,Sam's Southern Eatery,57,Seafood,4.0,35.9916184733105,-78.8677630573511,Durham,NC,1,26.93548387096774,3.564516129032258,1,1,North Carolina
71,mr-shark-chicago-style-fish-and-chicken-durham,Mr. Shark Chicago Style Fish & Chicken,26,Seafood,3.5,35.948116828168,-78.9217227324843,Durham,NC,1,26.93548387096774,3.564516129032258,0,0,North Carolina
902,red-lobster-durham,Red Lobster,122,Seafood,2.0,35.964486,-78.972943,Durham,NC,2,202.718954248366,3.738562091503268,0,0,North Carolina
796,dragon-inn-chinese-restaurant-durham,Dragon Inn Chinese Restaurant,86,Seafood,3.5,36.057807,-78.930371,Durham,NC,2,202.718954248366,3.738562091503268,0,0,North Carolina
976,gg-fish-and-chicken-restaurant-durham-2,GG Fish and Chicken Restaurant,22,Seafood,2.0,35.985019,-78.899943,Durham,NC,1,26.93548387096774,3.564516129032258,0,0,North Carolina
487,piney-point-bar-and-grill-durham,Piney Point Bar and Grill,17,Seafood,4.0,35.909764,-78.896982,Durham,NC,1,26.93548387096774,3.564516129032258,1,0,North Carolina
7540,the-house-fish-and-crab-durham-2,The House Fish & Crab,20,Seafood,3.5,35.967128140713406,-78.89485236441747,Durham,NC,1,26.93548387096774,3.564516129032258,0,0,North Carolina
3553405,captain-ds-durham,Captain D's,44,Seafood,3.5,35.9013287587855,-78.89042854,Durham,NC,1,26.93548387096774,3.564516129032258,0,1,North Carolina
84,t-n-t-fish-and-chicken-durham,T-N-T Fish & Chicken,1,Seafood,5.0,35.976558,-78.890563,Durham,NC,1,26.93548387096774,3.564516129032258,1,0,North Carolina
366,kitchen-queen-durham-2,Kitchen Queen,1,Seafood,4.0,35.996976,-78.916316,Durham,NC,1,26.93548387096774,3.564516129032258,1,0,North Carolina
676,captain-ds-durham-2,Captain D's,12,Seafood,3.5,36.0516287,-78.903273,Durham,NC,1,26.93548387096774,3.564516129032258,0,0,North Carolina
11,gg-fish-and-chicken-durham-2,GG Fish and Chicken,17,Seafood,2.5,35.920903,-78.956101,Durham,NC,1,26.93548387096774,3.564516129032258,0,0,North Carolina
979,taqueria-la-fiesta-durham,Taqueria La Fiesta,3,Seafood,3.5,36.003665,-78.876469,Durham,NC,1,26.93548387096774,3.564516129032258,0,0,North Carolina
3,toledo-butcher-shop-durham,Toledo Butcher Shop,7,Seafood,3.0,35.90156,-78.8915,Durham,NC,1,26.93548387096774,3.564516129032258,0,0,North Carolina
7,popeyes-louisiana-kitchen-durham-4,Popeyes Louisiana Kitchen,4,Seafood,2.0,35.90416,-78.94048,Durham,NC,1,26.93548387096774,3.564516129032258,0,0,North Carolina
18514,crab-house-chapel-hill,Crab House,14,Seafood,3.0,35.932384,-79.026556,Chapel Hill,NC,1,26.93548387096774,3.564516129032258,0,0,North Carolina
110884,131-main-restaurant-blakeney,131 MAIN Restaurant,547,Seafood,4.0,35.034145,-80.808977,Blakeney,NC,3,688.9,4.125,0,0,North Carolina
316,firebirds-wood-fired-grill-charlotte,Firebirds Wood Fired Grill,580,Seafood,4.0,35.062089,-80.815807,Charlotte,NC,3,688.9,4.125,0,0,North Carolina
90122,pearlz-oyster-bar-charlotte-3,Pearlz Oyster Bar,381,Seafood,4.0,35.060801,-80.814302,Charlotte,NC,2,202.718954248366,3.738562091503268,1,1,North Carolina
1529,shake-shake-seafood-pineville,Shake Shake Seafood,91,Seafood,4.0,35.086736,-80.881029,Pineville,NC,2,202.718954248366,3.738562091503268,1,0,North Carolina
320998,el-veracruz-mexican-restaurant-pineville,El Veracruz Mexican Restaurant,160,Seafood,4.0,35.084015,-80.88275,Pineville,NC,2,202.718954248366,3.738562091503268,1,0,North Carolina
1,great-wall-of-china-south-charlotte-2,Great Wall of China South,229,Seafood,3.5,35.0864818,-80.8461799,Charlotte,NC,2,202.718954248366,3.738562091503268,0,1,North Carolina
7486,bombay-grille-charlotte,Bombay Grille,190,Seafood,4.0,35.08952,-80.86628,Charlotte,NC,2,202.718954248366,3.738562091503268,1,0,North Carolina
876,tokyo-one-express-charlotte,Tokyo One Express,62,Seafood,4.5,35.05243,-80.8157,Charlotte,NC,1,26.93548387096774,3.564516129032258,1,1,North Carolina
4,bonefish-grill-charlotte,Bonefish Grill,214,Seafood,3.5,35.0887595,-80.8451741,Charlotte,NC,2,202.718954248366,3.738562091503268,0,1,North Carolina
2968,woody-s-seafood-saloon-charlotte,Woody’s Seafood Saloon,50,Seafood,3.5,35.05607,-80.83533,Charlotte,NC,1,26.93548387096774,3.564516129032258,0,1,North Carolina
138,skrimp-shack-charlotte-3,Skrimp Shack,169,Seafood,3.5,35.089432421119305,-80.86034554397564,Charlotte,NC,2,202.718954248366,3.738562091503268,0,0,North Carolina
1,chefs-kitchen-pineville-5,Chefs Kitchen,23,Seafood,3.5,35.08261,-80.8794,Pineville,NC,1,26.93548387096774,3.564516129032258,0,0,North Carolina
50,red-lobster-pineville,Red Lobster,151,Seafood,2.0,35.08665455,-80.87692467,Pineville,NC,2,202.718954248366,3.738562091503268,0,0,North Carolina
507,hook-and-reel-cajun-seafood-and-bar-charlotte,Hook & Reel Cajun Seafood & Bar,35,Seafood,3.5,35.102336,-80.984584,Charlotte,NC,1,26.93548387096774,3.564516129032258,0,1,North Carolina
418,red-bowl-asian-bistro-indian-land,Red Bowl Asian Bistro,50,Seafood,2.5,34.937873,-80.837646,Indian land,NC,1,26.93548387096774,3.564516129032258,0,1,North Carolina
51,captain-ds-pineville,Captain D's,30,Seafood,2.0,35.08912447,-80.876969,Pineville,NC,1,26.93548387096774,3.564516129032258,0,1,North Carolina
5450,maine-line-seafood-charleston,Maine Line Seafood,31,Seafood,5.0,32.616687468152,-80.1532099009017,Charleston,SC,1,18.423076923076923,3.625,1,1,South Carolina
375,simply-seafood-johns-island,Simply Seafood,68,Seafood,4.5,32.727082,-80.07009367,Johns Island,SC,2,112.17647058823529,3.7450980392156863,1,0,South Carolina
24,gilligans-seafood-restaurants-johns-island-johns-island-2,Gilligan's Seafood Restaurants - Johns Island,206,Seafood,3.5,32.7983,-80.10966,Johns Island,SC,2,112.17647058823529,3.7450980392156863,0,1,South Carolina
4988589,fish-net-seafood-johns-island,Fish Net Seafood,41,Seafood,4.5,32.80254,-80.1235899,Johns Island,SC,1,18.423076923076923,3.625,1,1,South Carolina
3632,nigels-good-food-ladson,Nigel's Good Food,233,Seafood,4.5,32.9897543,-80.098413,Ladson,SC,2,112.17647058823529,3.7450980392156863,1,1,South Carolina
455,gilligans-seafood-restaurant-of-goose-creek-goose-creek,Gilligan's Seafood Restaurant of Goose Creek,106,Seafood,3.0,33.009452,-80.046691,Goose Creek,SC,2,112.17647058823529,3.7450980392156863,0,0,South Carolina
6,gilligans-seafood-restaurant-summerville-ladson,Gilligan's Seafood Restaurant - Summerville,100,Seafood,2.5,32.975041255655526,-80.13731127094476,Ladson,SC,2,112.17647058823529,3.7450980392156863,0,0,South Carolina
511195,coctel-el-primo-ladson,Coctel El Primo,3,Seafood,5.0,33.0005878,-80.0910086,Ladson,SC,1,18.423076923076923,3.625,1,0,South Carolina
97,captain-ds-goose-creek,Captain D's,26,Seafood,2.5,32.99938987,-80.038727,Goose Creek,SC,1,18.423076923076923,3.625,0,1,South Carolina
20175,seewee-restaurant-awendaw-3,Seewee Restaurant,281,Seafood,4.0,32.9265545,-79.7147,Awendaw,SC,3,455.1818181818182,3.772727272727273,1,0,South Carolina
419363,islander-71-fish-house-and-deck-bar-isle-of-palms,Islander 71 Fish House and Deck Bar,99,Seafood,3.5,32.805805,-79.76011002557293,Isle Of Palms,SC,2,112.17647058823529,3.7450980392156863,0,0,South Carolina
203,coastal-provisions-isle-of-palms,Coastal Provisions,101,Seafood,3.5,32.803582,-79.738069,Isle Of Palms,SC,2,112.17647058823529,3.7450980392156863,0,0,South Carolina
5,oyster-catcher-isle-of-palms-2,Oyster Catcher,9,Seafood,4.5,32.803547764084094,-79.74079996347427,Isle of Palms,SC,1,18.423076923076923,3.625,1,0,South Carolina
165,los-cantaritos-rock-hill,Los Cantaritos,141,Seafood,4.0,34.97708,-80.9917,Rock Hill,SC,2,112.17647058823529,3.7450980392156863,1,1,South Carolina
181,helens-hot-chicken-and-seafood-rock-hill,Helen's Hot Chicken & Seafood,48,Seafood,4.5,34.9569,-80.99681,Rock Hill,SC,1,18.423076923076923,3.625,1,1,South Carolina
34115,island-grill-and-pub-rock-hill,Island Grill & Pub,77,Seafood,4.5,34.954149,-81.058347,Rock Hill,SC,2,112.17647058823529,3.7450980392156863,1,0,South Carolina
70025991,fiery-crab-juicy-seafood-rock-hill,Fiery Crab Juicy Seafood,95,Seafood,3.5,34.94283,-81.03513,Rock Hill,SC,2,112.17647058823529,3.7450980392156863,0,0,South Carolina
378450,captain-steves-fort-mill,Captain Steve's,355,Seafood,4.0,35.057437116197,-80.9385752677636,Fort Mill,SC,3,455.1818181818182,3.772727272727273,1,0,South Carolina
64,ginza-buffet-rock-hill-rock-hill,Ginza Buffet Rock Hill,179,Seafood,3.0,34.9409025965929,-80.96599339074163,Rock Hill,SC,2,112.17647058823529,3.7450980392156863,0,1,South Carolina
0,pier-51-rock-hill-2,Pier 51,79,Seafood,3.5,35.013608,-81.041448,Rock Hill,SC,2,112.17647058823529,3.7450980392156863,0,0,South Carolina
153,papa-docs-shore-club-lake-wylie-2,Papa Doc's Shore Club,606,Seafood,3.5,35.10700809264928,-81.04059270371363,Lake Wylie,SC,3,455.1818181818182,3.772727272727273,0,1,South Carolina
736586,golden-china-fort-mill,Golden China,115,Seafood,4.0,35.07739900781381,-80.9341232727703,Fort Mill,SC,2,112.17647058823529,3.7450980392156863,1,1,South Carolina
52,fish-market-fort-mill,Fish Market,269,Seafood,3.5,35.0278,-80.9689,Fort Mill,SC,3,455.1818181818182,3.772727272727273,0,0,South Carolina
623,that-s-amore-indian-land,That’s Amore,132,Seafood,3.5,34.97932749394551,-80.8562353,Indian Land,SC,2,112.17647058823529,3.7450980392156863,0,1,South Carolina
63010,t-j-s-family-restaurant-rock-hill,T.J.'s Family Restaurant,37,Seafood,3.5,34.9326591482167,-81.0588629543781,Rock Hill,SC,1,18.423076923076923,3.625,0,1,South Carolina
24176,shrimp-boat-rock-hill,Shrimp Boat,18,Seafood,3.5,34.901686,-81.029983,Rock Hill,SC,1,18.423076923076923,3.625,0,0,South Carolina
496,let-s-crab-fort-mill,Let’s Crab,88,Seafood,3.5,35.0610109,-80.98944913105008,Fort Mill,SC,2,112.17647058823529,3.7450980392156863,0,0,South Carolina
16,courtneys-bbq-clover-3,Courtney's BBQ,51,Seafood,3.5,35.1047,-81.20149,Clover,SC,2,112.17647058823529,3.7450980392156863,0,0,South Carolina
607,salute-chew-mobile-kitchen-and-catering-rock-hill,Salute Chew Mobile Kitchen & Catering,6,Seafood,4.0,34.9651565551758,-81.074836730957,Rock Hill,SC,1,18.423076923076923,3.625,1,0,South Carolina
5025857,salt-water-seafood-market-inc-rock-hill-2,Salt Water Seafood Market Inc,5,Seafood,4.0,34.9277725219727,-81.0276336669922,Rock Hill,SC,1,18.423076923076923,3.625,1,0,South Carolina
8033,big-wok-fort-mill,Big Wok,57,Seafood,3.5,35.03563755284344,-80.97131681820093,Fort Mill,SC,2,112.17647058823529,3.7450980392156863,0,0,South Carolina
85133,the-tavern-at-the-lakes-indian-land,The Tavern at the Lakes,10,Seafood,3.5,34.930836,-80.84343,Indian Land,SC,1,18.423076923076923,3.625,0,0,South Carolina
384998,old-york-seafood-family-restaurant-york,Old York Seafood Family Restaurant,43,Seafood,2.5,34.992233,-81.194251,York,SC,1,18.423076923076923,3.625,0,1,South Carolina
99812,hooties-bait-and-tackle-rock-hill,Hootie's Bait & Tackle,1,Seafood,2.0,34.96524811,-81.0541153,Rock Hill,SC,1,18.423076923076923,3.625,0,0,South Carolina
366,sobys-greenville,Soby's,821,Seafood,4.0,34.848288967903,-82.399931608225,Greenville,SC,3,455.1818181818182,3.772727272727273,1,1,South Carolina
751851,up-on-the-roof-greenville-2,UP On The Roof,690,Seafood,4.0,34.8465122,-82.4033157,Greenville,SC,3,455.1818181818182,3.772727272727273,1,1,South Carolina
841736,jianna-greenville,Jianna,439,Seafood,4.5,34.8452702,-82.4023466950891,Greenville,SC,3,455.1818181818182,3.772727272727273,1,0,South Carolina
6866,adams-bistro-greenville,Adams Bistro,234,Seafood,4.0,34.865860480391675,-82.3463568022186,Greenville,SC,2,112.17647058823529,3.7450980392156863,1,1,South Carolina
39,firebirds-wood-fired-grill-greenville,Firebirds Wood Fired Grill,381,Seafood,4.0,34.8337234825176,-82.3090569414943,Greenville,SC,3,455.1818181818182,3.772727272727273,1,0,South Carolina
44,the-lost-cajun-greenville-2,The Lost Cajun,457,Seafood,4.5,34.8580681686856,-82.2701877728105,Greenville,SC,3,455.1818181818182,3.772727272727273,1,1,South Carolina
62,sofrito-restaurant-and-bar-greenville,Sofrito Restaurant & Bar,185,Seafood,4.5,34.8201308758361,-82.2712717904068,Greenville,SC,2,112.17647058823529,3.7450980392156863,1,1,South Carolina
429,golden-llama-peruvian-rotisserie-and-grill-greenville-4,Golden Llama Peruvian Rotisserie & Grill,89,Seafood,4.0,34.8702798648457,-82.3546775391133,Greenville,SC,2,112.17647058823529,3.7450980392156863,1,0,South Carolina
98,the-lost-cajun-greenville-7,The Lost Cajun,191,Seafood,4.0,34.85201,-82.39816,Greenville,SC,2,112.17647058823529,3.7450980392156863,1,1,South Carolina
865,coral-greenville-greenville,Coral Greenville,102,Seafood,4.5,34.844851,-82.403821,Greenville,SC,2,112.17647058823529,3.7450980392156863,1,0,South Carolina
3,larkins-greenville,Larkin's,428,Seafood,3.5,34.847002884114126,-82.39946571399138,Greenville,SC,3,455.1818181818182,3.772727272727273,0,0,South Carolina
4621,biminis-oyster-bar-and-seafood-cafe-greenville-2,Biminis Oyster Bar & Seafood Cafe,203,Seafood,3.5,34.85906,-82.33969,Greenville,SC,2,112.17647058823529,3.7450980392156863,0,1,South Carolina
96437,the-seafood-spot-greenville,The Seafood Spot,50,Seafood,4.0,34.8436499,-82.36622,Greenville,SC,2,112.17647058823529,3.7450980392156863,1,0,South Carolina
510,irashiai-sushi-pub-greenville,Irashiai Sushi Pub,147,Seafood,4.0,34.867082577592505,-82.35005653716406,Greenville,SC,2,112.17647058823529,3.7450980392156863,1,1,South Carolina
972,sofrito-latin-restaurant-and-bar-greenville-2,Sofrito Latin Restaurant & Bar,28,Seafood,5.0,34.8424811,-82.41056619999999,Greenville,SC,1,18.423076923076923,3.625,1,1,South Carolina
6416,mr-crisp-greenville,Mr Crisp,18,Seafood,4.0,34.85908093793802,-82.37992482573243,Greenville,SC,1,18.423076923076923,3.625,1,0,South Carolina
25,india-palace-greenville,India Palace,145,Seafood,4.0,34.8428383,-82.363472,Greenville,SC,2,112.17647058823529,3.7450980392156863,1,1,South Carolina
909,shuckin-shack-oyster-bar-greenville-2,Shuckin' Shack Oyster Bar,188,Seafood,4.0,34.85983,-82.26922,Greenville,SC,2,112.17647058823529,3.7450980392156863,1,1,South Carolina
9175,chophouse-47-greenville-2,Chophouse '47,183,Seafood,4.0,34.856913848586906,-82.26821126002112,Greenville,SC,2,112.17647058823529,3.7450980392156863,1,1,South Carolina
7207,poke-bros-greenville-2,Poke Bros,117,Seafood,4.5,34.860362,-82.263306,Greenville,SC,2,112.17647058823529,3.7450980392156863,1,1,South Carolina
696,hans-and-franz-biergarten-greenville,Hans & Franz Biergarten,129,Seafood,3.5,34.850002,-82.232188,Greenville,SC,2,112.17647058823529,3.7450980392156863,0,1,South Carolina
496,crab-du-jour-cajun-seafood-restaurant-and-bar-greenville,Crab Du Jour Cajun Seafood Restaurant & Bar,108,Seafood,3.5,34.823563,-82.289523,Greenville,SC,2,112.17647058823529,3.7450980392156863,0,0,South Carolina
883,viva-villa-greenville-greenville,Viva Villa - Greenville,33,Seafood,4.0,34.84319,-82.4083,Greenville,SC,1,18.423076923076923,3.625,1,1,South Carolina
2483,blockhouse-restaurant-greenville-2,Blockhouse Restaurant,72,Seafood,3.5,34.82899,-82.39926,Greenville,SC,2,112.17647058823529,3.7450980392156863,0,0,South Carolina
8621968,low-country-shrimper-mauldin,Low Country Shrimper,147,Seafood,4.5,34.7795380247904,-82.3034709991798,Mauldin,SC,2,112.17647058823529,3.7450980392156863,1,1,South Carolina
7933,elvino-s-greenville,Elvino’s,52,Seafood,4.0,34.91090662931598,-82.4277,Greenville,SC,2,112.17647058823529,3.7450980392156863,1,0,South Carolina
9,bonefish-grill-greenville,Bonefish Grill,151,Seafood,3.5,34.820760302908575,-82.27780797375982,Greenville,SC,2,112.17647058823529,3.7450980392156863,0,1,South Carolina
835156,ruths-chris-steak-house-greenville-9,Ruth's Chris Steak House,133,Seafood,3.5,34.83943,-82.31593,Greenville,SC,2,112.17647058823529,3.7450980392156863,0,1,South Carolina
7849,lieus-asian-bistro-greenville-2,Lieu's Asian Bistro,52,Seafood,4.0,34.858529,-82.265025,Greenville,SC,2,112.17647058823529,3.7450980392156863,1,0,South Carolina
4463,harbor-inn-cajun-seafood-greenville,Harbor Inn Cajun Seafood,65,Seafood,2.5,34.8396206,-82.3444883,Greenville,SC,2,112.17647058823529,3.7450980392156863,0,0,South Carolina
9580,viva-villa-mexican-grill-mauldin,Viva Villa Mexican grill,53,Seafood,4.5,34.7815574567871,-82.3116801851852,Mauldin,SC,2,112.17647058823529,3.7450980392156863,1,0,South Carolina
64,travinia-italian-kitchen-greenville-greenville,Travinia Italian Kitchen - Greenville,69,Seafood,3.5,34.85791080162774,-82.26445851901674,Greenville,SC,2,112.17647058823529,3.7450980392156863,0,0,South Carolina
40656,carrabbas-italian-grill-greenville-2,Carrabba's Italian Grill,153,Seafood,2.5,34.8349102,-82.312076,Greenville,SC,2,112.17647058823529,3.7450980392156863,0,1,South Carolina
705,heat-of-powdersville-piedmont,Heat of Powdersville,26,Seafood,4.5,34.7552137,-82.4992204,Piedmont,SC,1,18.423076923076923,3.625,1,1,South Carolina
41227,golden-llama-peruvian-rotisserie-and-grill-simpsonville-6,Golden Llama Peruvian Rotisserie & Grill ,62,Seafood,4.5,34.80709096740651,-82.22980506656165,Simpsonville,SC,2,112.17647058823529,3.7450980392156863,1,0,South Carolina
690,red-lobster-greenville-2,Red Lobster,90,Seafood,3.0,34.879145,-82.35986,Greenville,SC,2,112.17647058823529,3.7450980392156863,0,0,South Carolina
785,cantinflas-mexican-and-vegetarian-cuisine-greenville-2,Cantinflas Mexican and Vegetarian Cuisine,280,Seafood,2.0,34.850555,-82.399329,Greenville,SC,3,455.1818181818182,3.772727272727273,0,0,South Carolina
964,wholy-smoke-family-restaurant-mauldin,Wholy Smoke Family Restaurant,64,Seafood,4.5,34.774908,-82.321181,Mauldin,SC,2,112.17647058823529,3.7450980392156863,1,0,South Carolina
7052,crab-du-jour-cajun-seafood-and-bar-magnolia-greenville,Crab Du Jour Cajun Seafood & Bar - Magnolia,14,Seafood,4.0,34.83432,-82.30976,Greenville,SC,1,18.423076923076923,3.625,1,0,South Carolina
7367,arizona-handcrafted-fare-and-drink-simpsonville,Arizona Handcrafted Fare & Drink,101,Seafood,3.5,34.711689,-82.2486877,Simpsonville,SC,2,112.17647058823529,3.7450980392156863,0,0,South Carolina
2550,coach-house-restaurant-simpsonville,Coach House Restaurant,128,Seafood,3.5,34.7224033166064,-82.2530132340895,Simpsonville,SC,2,112.17647058823529,3.7450980392156863,0,1,South Carolina
702427,smokin-wings-greenville,Smokin Wings,68,Seafood,3.5,34.809244,-82.279935,Greenville,SC,2,112.17647058823529,3.7450980392156863,0,0,South Carolina
29951,irashiai-woodruff-greenville,Irashiai Woodruff,16,Seafood,4.0,34.819878242675884,-82.2751756022841,Greenville,SC,1,18.423076923076923,3.625,1,0,South Carolina
3970,roscoes-running-crab-greenville,Roscoe's Running Crab,21,Seafood,3.5,34.81911,-82.44312,Greenville,SC,1,18.423076923076923,3.625,0,1,South Carolina
63,samurai-japanese-steakhouse-and-cajun-seafood-greenville,Samurai Japanese Steakhouse & Cajun Seafood,25,Seafood,4.0,34.85835,-82.2661,Greenville,SC,1,18.423076923076923,3.625,1,1,South Carolina
7,m-and-j-steak-and-seafood-restaurant-lyman,M & J Steak & Seafood Restaurant,36,Seafood,4.0,34.9580859584212,-82.17438,Lyman,SC,1,18.423076923076923,3.625,1,1,South Carolina
47,silver-bay-seafood-of-simpsonville-simpsonville,Silver Bay Seafood Of Simpsonville,83,Seafood,3.5,34.75392,-82.26561,Simpsonville,SC,2,112.17647058823529,3.7450980392156863,0,0,South Carolina
293,silver-bay-seafood-restaurant-greenville,Silver Bay Seafood Restaurant,48,Seafood,3.0,34.866601,-82.464492,Greenville,SC,1,18.423076923076923,3.625,0,1,South Carolina
8054876,kalahari-ocean-grill-greer,Kalahari Ocean Grill,40,Seafood,4.0,34.8867193000706,-82.1530871547103,Greer,SC,1,18.423076923076923,3.625,1,1,South Carolina
90,joe-joes-seafood-market-greenville-2,Joe Joe's Seafood Market,20,Seafood,3.5,34.8961482,-82.3417883,Greenville,SC,1,18.423076923076923,3.625,0,1,South Carolina
6857,black-sheep-market-gvl-greenville,Black Sheep Market GVL,4,Seafood,5.0,34.8908672061428,-82.34803587198257,Greenville,SC,1,18.423076923076923,3.625,1,0,South Carolina
13535,crab-du-jour-greenville,Crab Du Jour,21,Seafood,3.0,34.88798770128536,-82.40007894659621,Greenville,SC,1,18.423076923076923,3.625,0,1,South Carolina
815,bellacinos-pizza-and-grinders-simpsonville,Bellacino's Pizza And Grinders,53,Seafood,3.5,34.70472839,-82.25488144,Simpsonville,SC,2,112.17647058823529,3.7450980392156863,0,0,South Carolina
21,anchor-raw-bar-simpsonville,Anchor Raw Bar,24,Seafood,3.5,34.735272,-82.255444,Simpsonville,SC,1,18.423076923076923,3.625,0,1,South Carolina
69,tropical-african-jamaican-caribbean-food-greenville,Tropical African Jamaican Caribbean Food,1,Seafood,5.0,34.87663044258622,-82.35895162750015,Greenville,SC,1,18.423076923076923,3.625,1,0,South Carolina
619,grand-china-restaurant-greer-2,Grand China Restaurant,44,Seafood,3.0,34.9486,-82.21232,Greer,SC,1,18.423076923076923,3.625,0,1,South Carolina
7074686,los-mayas-mexican-grill-taylors,Los Maya's Mexican Grill,29,Seafood,3.5,34.9906064190134,-82.2968240625,Taylors,SC,1,18.423076923076923,3.625,0,1,South Carolina
98,michael-s-cajun-seafood-greenville,Michael’s Cajun Seafood,12,Seafood,3.5,34.912668,-82.428761,Greenville,SC,1,18.423076923076923,3.625,0,0,South Carolina
718,hibachi-grill-supreme-buffet-taylors,Hibachi Grill Supreme Buffet,39,Seafood,1.5,34.9067305780614,-82.3312029954551,Taylors,SC,1,18.423076923076923,3.625,0,1,South Carolina
24,long-john-silvers-greenville-4,Long John Silver's,10,Seafood,3.0,34.85326,-82.45256,Greenville,SC,1,18.423076923076923,3.625,0,0,South Carolina
86025,cajun-kitchen-on-da-geaux-taylors,Cajun Kitchen On Da Geaux,2,Seafood,5.0,34.939884,-82.336234,Taylors,SC,1,18.423076923076923,3.625,1,0,South Carolina
5650,touchdown-wings-and-hibachi-simpsonville,Touchdown Wings & Hibachi,4,Seafood,4.0,34.724938697653336,-82.2945299,Simpsonville,SC,1,18.423076923076923,3.625,1,0,South Carolina
801,rick-erwins-greer-greer,Rick Erwin's - Greer,1,Seafood,4.0,34.93851,-82.22717,Greer,SC,1,18.423076923076923,3.625,1,0,South Carolina
88,hillside-sausage-and-butcher-shop-greer,Hillside Sausage & Butcher Shop,2,Seafood,5.0,34.85139431399709,-82.22973380778784,Greer,SC,1,18.423076923076923,3.625,1,0,South Carolina
994,popeyes-mauldin,Popeyes Louisiana Kitchen,35,Seafood,2.0,34.77610275605655,-82.30834141397615,Mauldin,SC,1,18.423076923076923,3.625,0,1,South Carolina
49104,dinos-family-restaurant-mauldin,Dino's Family Restaurant,31,Seafood,2.5,34.7979,-82.28644,Mauldin,SC,1,18.423076923076923,3.625,0,1,South Carolina
51,going-coastal-greenville,Going Coastal,1,Seafood,4.0,34.8472900390625,-82.3987197875977,Greenville,SC,1,18.423076923076923,3.625,1,0,South Carolina
63630,long-john-silvers-greer,Long John Silver's,18,Seafood,1.5,34.93787,-82.26929,Greer,SC,1,18.423076923076923,3.625,0,0,South Carolina
874,las-catrinas-powdersville,Las Catrinas,6,Seafood,4.0,34.7765,-82.46564,Powdersville,SC,1,18.423076923076923,3.625,1,0,South Carolina
59203,long-john-silvers-mauldin,Long John Silver's,13,Seafood,2.0,34.776830740741,-82.3077526553761,Mauldin,SC,1,18.423076923076923,3.625,0,0,South Carolina
79,o-charleys-simpsonville-2,O'Charley's,6,Seafood,2.5,34.70879,-82.25629,Simpsonville,SC,1,18.423076923076923,3.625,0,0,South Carolina
20,brinkleys-chop-house-north-augusta,Brinkley's Chop House,54,Seafood,4.0,33.48535019573399,-81.97507246369268,North Augusta,SC,2,112.17647058823529,3.7450980392156863,1,0,South Carolina
21,old-mcdonald-fish-camp-north-augusta,Old McDonald Fish Camp,73,Seafood,4.0,33.5990257263184,-81.9701538085938,North Augusta,SC,2,112.17647058823529,3.7450980392156863,1,0,South Carolina
5826,drift-raw-bar-north-augusta,Drift Raw Bar,13,Seafood,3.0,33.48445,-81.97566,North Augusta,SC,1,18.423076923076923,3.625,0,0,South Carolina
62,pinckneys-home-cooking-north-augusta,Pinckney's Home  Cooking,5,Seafood,4.5,33.6396565,-81.9089592,North Augusta,SC,1,18.423076923076923,3.625,1,0,South Carolina
925921,captain-ds-north-augusta,Captain D's,12,Seafood,3.5,33.523629,-81.953581,North Augusta,SC,1,18.423076923076923,3.625,0,0,South Carolina
121,downtown-t-s-north-augusta,Downtown T’s,3,Seafood,4.5,33.49069804079396,-81.97276363801423,North Augusta,SC,1,18.423076923076923,3.625,1,0,South Carolina
83,ming-ming-chinese-restaurant-warrenville,Ming Ming Chinese Restaurant,17,Seafood,3.0,33.50629,-81.86591,Warrenville,SC,1,18.423076923076923,3.625,0,0,South Carolina
518,tres-coronas-north-augusta,Tres Coronas,1,Seafood,1.0,33.49043109933216,-81.95312540329714,North Augusta,SC,1,18.423076923076923,3.625,0,0,South Carolina
68491,club-black-dream-hardeeville,Club Black Dream,1,Seafood,5.0,32.19668,-81.04431,Hardeeville,SC,1,18.423076923076923,3.625,1,0,South Carolina
7883,orsay-jacksonville-4,Orsay,1066,Seafood,4.5,30.30019,-81.70986,Jacksonville,FL,3,1042.8153846153846,4.046153846153846,1,1,Florida
7,the-cowford-chophouse-jacksonville,Cowford Chophouse,550,Seafood,4.0,30.32612,-81.6565,Jacksonville,FL,2,216.31464174454828,3.7429906542056073,1,1,Florida
29,the-blue-fish-restaurant-and-oyster-bar-jacksonville,The Blue Fish Restaurant And Oyster Bar,702,Seafood,4.0,30.29745,-81.70348,Jacksonville,FL,3,1042.8153846153846,4.046153846153846,0,0,Florida
451383,norikase-jacksonville-3,Norikase,98,Seafood,4.5,30.264886767287425,-81.55486373190945,Jacksonville,FL,2,216.31464174454828,3.7429906542056073,1,0,Florida
3118,southern-coast-seafood-jacksonville,Southern Coast Seafood,214,Seafood,4.5,30.34275699922184,-81.53633480935328,Jacksonville,FL,2,216.31464174454828,3.7429906542056073,1,0,Florida
15,sushi-bear-sushi-and-grill-jacksonville-3,Sushi Bear Sushi & Grill,509,Seafood,4.5,30.2878736,-81.7214349,Jacksonville,FL,2,216.31464174454828,3.7429906542056073,1,1,Florida
556,the-juicy-crab-jacksonville-2,The Juicy Crab,485,Seafood,4.0,30.3203568467389,-81.5506083386231,Jacksonville,FL,2,216.31464174454828,3.7429906542056073,1,1,Florida
956,blue-orchid-thai-cuisine-jacksonville-2,Blue Orchid Thai Cuisine,141,Seafood,4.5,30.31161,-81.67836,Jacksonville,FL,2,216.31464174454828,3.7429906542056073,1,0,Florida
44,j-alexanders-jacksonville-4,J. Alexander's,432,Seafood,4.0,30.2528,-81.52497,Jacksonville,FL,2,216.31464174454828,3.7429906542056073,1,1,Florida
1,ruths-chris-steak-house-jacksonville,Ruth's Chris Steak House,346,Seafood,4.0,30.319563882874167,-81.65719204285278,Jacksonville,FL,2,216.31464174454828,3.7429906542056073,1,1,Florida
73,seasons-52-jacksonville-4,Seasons 52,459,Seafood,4.0,30.251875,-81.526072,Jacksonville,FL,2,216.31464174454828,3.7429906542056073,1,1,Florida
7501,the-capital-grille-jacksonville-2,The Capital Grille,356,Seafood,4.0,30.252601158463,-81.5255383411045,Jacksonville,FL,2,216.31464174454828,3.7429906542056073,1,1,Florida
15551,seafood-island-bar-and-grille-jacksonville-2,Seafood Island Bar & Grille,191,Seafood,4.0,30.30458,-81.65517,Jacksonville,FL,2,216.31464174454828,3.7429906542056073,1,0,Florida
60648,stonewood-grill-and-tavern-jacksonville,Stonewood Grill & Tavern,284,Seafood,4.0,30.21734,-81.61558,Jacksonville,FL,2,216.31464174454828,3.7429906542056073,1,1,Florida
29,sabor-mix-restaurant-jacksonville,Sabor Mix Restaurant,83,Seafood,4.5,30.287903,-81.5156266,Jacksonville,FL,2,216.31464174454828,3.7429906542056073,1,0,Florida
86115,taste-of-thai-jacksonville,Taste Of Thai,144,Seafood,4.5,30.2788933252634,-81.6026040699021,Jacksonville,FL,2,216.31464174454828,3.7429906542056073,1,0,Florida
915,t-h-c-trap-house-chicken-jacksonville,T H C Trap House Chicken,156,Seafood,4.5,30.3524483688097,-81.5982360765338,Jacksonville,FL,2,216.31464174454828,3.7429906542056073,1,0,Florida
99993,athenian-owl-jacksonville-2,Athenian Owl,217,Seafood,4.5,30.22164,-81.55943,Jacksonville,FL,2,216.31464174454828,3.7429906542056073,1,1,Florida
4835,southern-charm-jacksonville-2,Southern Charm,239,Seafood,4.5,30.2877583,-81.644135,Jacksonville,FL,2,216.31464174454828,3.7429906542056073,1,1,Florida
514,copelands-jacksonville-4,Copeland's,445,Seafood,3.5,30.26901,-81.55959,Jacksonville,FL,2,216.31464174454828,3.7429906542056073,0,1,Florida
141,mad-o-seafood-jacksonville,Mad O Seafood,164,Seafood,4.5,30.2015671169205,-81.6154637398118,Jacksonville,FL,2,216.31464174454828,3.7429906542056073,1,0,Florida
7578279,firebirds-wood-fired-grill-jacksonville-3,Firebirds Wood Fired Grill,466,Seafood,3.5,30.255653601803505,-81.53122775440269,Jacksonville,FL,2,216.31464174454828,3.7429906542056073,0,1,Florida
3411151,tommy-bahama-marlin-bar-and-store-jacksonville-jacksonville,Tommy Bahama | Marlin Bar & Store - Jacksonville,166,Seafood,4.0,30.254153,-81.525637,Jacksonville,FL,2,216.31464174454828,3.7429906542056073,1,0,Florida
328,big-crab-seafood-restaurant-jacksonville-3,Big Crab Seafood Restaurant,273,Seafood,4.0,30.2175647181846,-81.5204668707868,Jacksonville,FL,2,216.31464174454828,3.7429906542056073,1,1,Florida
3,havana-jax-jacksonville-2,Havana Jax,140,Seafood,3.5,30.30543,-81.63748,Jacksonville,FL,2,216.31464174454828,3.7429906542056073,0,0,Florida
29,trent-s-seafood-and-grill-jacksonville,Trent’s seafood & Grill,217,Seafood,4.0,30.2326,-81.70063,Jacksonville,FL,2,216.31464174454828,3.7429906542056073,1,1,Florida
39,chart-house-jacksonville,Chart House,361,Seafood,3.5,30.3182185,-81.6537196,Jacksonville,FL,2,216.31464174454828,3.7429906542056073,0,1,Florida
706,island-wing-grill-and-bar-jacksonville-jacksonville,Island Wing Grill & Bar - Jacksonville,289,Seafood,3.5,30.26645,-81.55758,Jacksonville,FL,2,216.31464174454828,3.7429906542056073,0,1,Florida
3527,bahama-breeze-jacksonville-5,Bahama Breeze,461,Seafood,3.5,30.2559199336956,-81.5288232355819,Jacksonville,FL,2,216.31464174454828,3.7429906542056073,0,1,Florida
4,taverna-oceana-jacksonville-2,Taverna Oceana,21,Seafood,4.0,30.30383295856731,-81.6546077,Jacksonville,FL,1,16.236363636363638,3.7227272727272727,1,1,Florida
50,el-taino-restaurant-jacksonville,El Taino Restaurant,65,Seafood,3.5,30.277996,-81.602408,Jacksonville,FL,2,216.31464174454828,3.7429906542056073,0,0,Florida
6,mariscos-el-pacifico-jacksonville,Mariscos El Pacifico,21,Seafood,4.0,30.263945,-81.623337,Jacksonville,FL,1,16.236363636363638,3.7227272727272727,1,1,Florida
864712,halal-china-box-jacksonville,Halal China Box,20,Seafood,4.5,30.28711978872744,-81.57827061322143,Jacksonville,FL,1,16.236363636363638,3.7227272727272727,1,1,Florida
6845,big-crab-seafood-restaurant-jacksonville,Big Crab Seafood Restaurant,178,Seafood,4.0,30.311161,-81.734168,Jacksonville,FL,2,216.31464174454828,3.7429906542056073,1,0,Florida
4,carrabbas-italian-grill-jacksonville-6,Carrabba's Italian Grill,143,Seafood,3.5,30.217661,-81.515713,Jacksonville,FL,2,216.31464174454828,3.7429906542056073,0,0,Florida
687,china-dragon-jacksonville,China Dragon,61,Seafood,4.0,30.2782674489821,-81.6019730419328,Jacksonville,FL,2,216.31464174454828,3.7429906542056073,1,0,Florida
447,st-marys-seafood-and-more-jacksonville-4,St Marys Seafood & More,78,Seafood,3.5,30.218228,-81.5157106,Jacksonville,FL,2,216.31464174454828,3.7429906542056073,0,0,Florida
563110,crafty-crab-atlantic-jacksonville-3,Crafty Crab - Atlantic,59,Seafood,3.5,30.3218996,-81.5442164,Jacksonville,FL,2,216.31464174454828,3.7429906542056073,0,0,Florida
4070,red-crab-juicy-seafood-jacksonville-2,Red Crab - Juicy Seafood,59,Seafood,4.0,30.194431,-81.622681,Jacksonville,FL,2,216.31464174454828,3.7429906542056073,1,0,Florida
71662,juliettes-bistro-jacksonville,Juliette's Bistro,101,Seafood,3.5,30.32603,-81.66208,Jacksonville,FL,2,216.31464174454828,3.7429906542056073,0,0,Florida
40,green-lake-jacksonville,Green Lake,91,Seafood,4.0,30.2796132596297,-81.7195125031799,Jacksonville,FL,2,216.31464174454828,3.7429906542056073,1,0,Florida
10,captain-ds-jacksonville-5,Captain D's,26,Seafood,4.0,30.2716447,-81.60894,Jacksonville,FL,1,16.236363636363638,3.7227272727272727,1,1,Florida
963,team-love-seafood-jacksonville-2,Team Love Seafood,41,Seafood,4.5,30.32250720183552,-81.54734102844634,Jacksonville,FL,1,16.236363636363638,3.7227272727272727,1,1,Florida
857,tunis-seafood-wings-and-subs-jacksonville,"Tunis Seafood, Wings & Subs",52,Seafood,3.5,30.279462,-81.602449,Jacksonville,FL,1,16.236363636363638,3.7227272727272727,0,1,Florida
34,seafood-express-and-more-jacksonville-3,Seafood Express & More,120,Seafood,3.5,30.28496,-81.525,Jacksonville,FL,2,216.31464174454828,3.7429906542056073,0,0,Florida
58,sakura-buffet-jacksonville,Sakura Buffet,163,Seafood,3.0,30.32017814015548,-81.54580552331338,Jacksonville,FL,2,216.31464174454828,3.7429906542056073,0,0,Florida
49622,hip-hop-fish-and-chicken-jacksonville,Hip Hop Fish and Chicken,112,Seafood,3.5,30.3799912524919,-81.6506893198547,Jacksonville,FL,2,216.31464174454828,3.7429906542056073,0,0,Florida
827,tunis-jacksonville-4,Tunis,32,Seafood,4.0,30.220986548405545,-81.59247536212206,Jacksonville,FL,1,16.236363636363638,3.7227272727272727,1,1,Florida
799,red-lobster-jacksonville-4,Red Lobster,103,Seafood,3.0,30.22028602,-81.57760047,Jacksonville,FL,2,216.31464174454828,3.7429906542056073,0,0,Florida
81754,sakura-japanese-steakhouse-jacksonville,Sakura Japanese Steakhouse,131,Seafood,3.5,30.2065,-81.61806,Jacksonville,FL,2,216.31464174454828,3.7429906542056073,0,0,Florida
420,carrabbas-italian-grill-jacksonville-9,Carrabba's Italian Grill,151,Seafood,3.0,30.1966454,-81.6203613,Jacksonville,FL,2,216.31464174454828,3.7429906542056073,0,0,Florida
7,noble-italian-and-american-restaurant-jacksonville,Noble Italian & American restaurant,3,Seafood,5.0,30.3511136,-81.5949862,Jacksonville,FL,1,16.236363636363638,3.7227272727272727,1,0,Florida
2,cajun-crab-juicy-seafood-and-bar-jacksonville,Cajun Crab Juicy Seafood & Bar,38,Seafood,3.5,30.32994,-81.55042,Jacksonville,FL,1,16.236363636363638,3.7227272727272727,0,1,Florida
473,red-lobster-jacksonville,Red Lobster,91,Seafood,2.5,30.32982,-81.550969,Jacksonville,FL,2,216.31464174454828,3.7429906542056073,0,0,Florida
991101324,shor-seafood-grill-and-tavern-jacksonville,Shor Seafood Grill & Tavern,29,Seafood,3.5,30.32414,-81.6554,Jacksonville,FL,1,16.236363636363638,3.7227272727272727,0,1,Florida
455,the-conch-shell-jacksonville,The Conch Shell,8,Seafood,5.0,30.357952,-81.660757,Jacksonville,FL,1,16.236363636363638,3.7227272727272727,1,0,Florida
3833,bottega-by-liz-grenamyer-jacksonville,Bottega By Liz Grenamyer,7,Seafood,5.0,30.313861,-81.695623,Jacksonville,FL,1,16.236363636363638,3.7227272727272727,1,0,Florida
23548,seven-seas-crab-house-jacksonville,Seven Seas Crab House,65,Seafood,3.5,30.372418,-81.651874,Jacksonville,FL,2,216.31464174454828,3.7429906542056073,0,0,Florida
9709,j-ville-crab-shack-jacksonville,J-Ville Crab Shack,15,Seafood,4.5,30.3738418,-81.665457,Jacksonville,FL,1,16.236363636363638,3.7227272727272727,1,0,Florida
961,naurahs-jacksonville,Naurahs,11,Seafood,4.0,30.351186650661,-81.5949728832851,Jacksonville,FL,1,16.236363636363638,3.7227272727272727,1,0,Florida
83210,juicy-seafood-truck-jacksonville,Juicy Seafood Truck,8,Seafood,4.5,30.249192,-81.590041,Jacksonville,FL,1,16.236363636363638,3.7227272727272727,1,0,Florida
904,indulgence-southern-bistro-jacksonville,Indulgence Southern Bistro,23,Seafood,3.5,30.328075538292133,-81.66212841960892,Jacksonville,FL,1,16.236363636363638,3.7227272727272727,0,1,Florida
393259,island-girl-seafood-jacksonville-2,Island Girl Seafood,23,Seafood,4.0,30.331470489502,-81.6562194824219,Jacksonville,FL,1,16.236363636363638,3.7227272727272727,1,1,Florida
98,j-ville-crab-shack-jacksonville-2,J-Ville Crab Shack,29,Seafood,3.5,30.3289146519132,-81.5865038069782,Jacksonville,FL,1,16.236363636363638,3.7227272727272727,0,1,Florida
999114,captain-ds-jacksonville-4,Captain D's,24,Seafood,3.5,30.313351,-81.573984,Jacksonville,FL,1,16.236363636363638,3.7227272727272727,0,1,Florida
26,whispers-scarfe-seafood-and-lounge-jacksonville,Whispers Scarfe Seafood & Lounge,13,Seafood,4.0,30.21959622549841,-81.58654633909464,Jacksonville,FL,1,16.236363636363638,3.7227272727272727,1,0,Florida
8529,j-cs-fresh-seafood-jacksonville-2,J C's Fresh Seafood,28,Seafood,3.5,30.29731,-81.72984,Jacksonville,FL,1,16.236363636363638,3.7227272727272727,0,1,Florida
487,lewey-s-seafood-and-wings-jacksonville-2,Lewey’s Seafood And Wings,17,Seafood,3.5,30.3348395,-81.60297039999999,Jacksonville,FL,1,16.236363636363638,3.7227272727272727,0,1,Florida
9992,tunis-freshnfast-jacksonville,Tunis Freshnfast,3,Seafood,4.5,30.221192972016272,-81.59241412938879,Jacksonville,FL,1,16.236363636363638,3.7227272727272727,1,0,Florida
5021791,lemon-j-pepper-jacksonville,Lemon J Pepper,29,Seafood,3.0,30.3724,-81.65078,Jacksonville,FL,1,16.236363636363638,3.7227272727272727,0,1,Florida
308,barons-crab-stop-jacksonville,Barons Crab Stop,9,Seafood,4.0,30.36524,-81.670976,Jacksonville,FL,1,16.236363636363638,3.7227272727272727,1,0,Florida
72,quick-chinese-jacksonville,Quick Chinese,53,Seafood,3.0,30.2207971258189,-81.5556485475495,Jacksonville,FL,1,16.236363636363638,3.7227272727272727,0,1,Florida
7,uncle-genes-soul-and-seafood-cafe-jacksonville,Uncle Gene's Soul And Seafood Cafe,28,Seafood,3.0,30.2476463,-81.7150116,Jacksonville,FL,1,16.236363636363638,3.7227272727272727,0,1,Florida
753,laurens-seafood-blues-and-jazz-jacksonville,Lauren's Seafood Blues & Jazz,9,Seafood,3.5,30.32362,-81.55082,Jacksonville,FL,1,16.236363636363638,3.7227272727272727,0,0,Florida
4,mr-snappers-fish-and-chicken-jacksonville-2,Mr Snappers Fish and Chicken,30,Seafood,2.5,30.3332,-81.73173,Jacksonville,FL,1,16.236363636363638,3.7227272727272727,0,1,Florida
93,nesbit-jacksonville,Nesbit,6,Seafood,5.0,30.3780563607622,-81.6987009481481,Jacksonville,FL,1,16.236363636363638,3.7227272727272727,1,0,Florida
1,two-cooking-cousins-jacksonville,Two Cooking Cousins,9,Seafood,4.0,30.372059,-81.687824,Jacksonville,FL,1,16.236363636363638,3.7227272727272727,1,0,Florida
333,super-food-truck-jacksonville-2,SUPER FOOD TRUCK,12,Seafood,4.0,30.22184,-81.55233,Jacksonville,FL,1,16.236363636363638,3.7227272727272727,1,0,Florida
249,ajs-seafood-jacksonville,AJ's Seafood,12,Seafood,4.0,30.3323,-81.5806,Jacksonville,FL,1,16.236363636363638,3.7227272727272727,1,0,Florida
672,bassils-pizza-and-subs-jacksonville-5,Bassil's Pizza & Subs,10,Seafood,4.0,30.374297,-81.650254,Jacksonville,FL,1,16.236363636363638,3.7227272727272727,1,0,Florida
4366,yara-seafood-jacksonville-2,Yara Seafood,7,Seafood,4.0,30.2917489,-81.6263004202377,Jacksonville,FL,1,16.236363636363638,3.7227272727272727,1,0,Florida
8404832,jazzy-krab-jacksonville,Jazzy Krab,2,Seafood,5.0,30.38784,-81.73245,Jacksonville,FL,1,16.236363636363638,3.7227272727272727,1,0,Florida
3280,sams-southern-eatery-jacksonville,Sam's Southern Eatery,4,Seafood,4.0,30.346743614558648,-81.65355060249566,Jacksonville,FL,1,16.236363636363638,3.7227272727272727,1,0,Florida
23429,tunis-seafood-and-wings-jacksonville,Tunis Seafood & Wings,26,Seafood,2.5,30.3478047226233,-81.653631591327,Jacksonville,FL,1,16.236363636363638,3.7227272727272727,0,1,Florida
7420,starvin-like-marvin-jacksonville,Starvin Like Marvin,3,Seafood,4.5,30.33183,-81.660707,Jacksonville,FL,1,16.236363636363638,3.7227272727272727,1,0,Florida
3,malula-jacksonville,Malula,7,Seafood,3.5,30.33488,-81.603,Jacksonville,FL,1,16.236363636363638,3.7227272727272727,0,0,Florida
2051,we-be-cooking-jacksonville,We Be Cooking,2,Seafood,5.0,30.32568693819708,-81.68890959098476,Jacksonville,FL,1,16.236363636363638,3.7227272727272727,1,0,Florida
68866,captain-ds-jacksonville-10,Captain D's,9,Seafood,3.0,30.335874,-81.731497,Jacksonville,FL,1,16.236363636363638,3.7227272727272727,0,0,Florida
241,good-food-24-7-jacksonville,Good Food 24/7,9,Seafood,3.5,30.3735789564555,-81.7165258526802,Jacksonville,FL,1,16.236363636363638,3.7227272727272727,0,0,Florida
55,temptress-caribbean-restaurant-jacksonville,Temptress Caribbean Restaurant,1,Seafood,4.0,30.331689703983447,-81.70460645109415,Jacksonville,FL,1,16.236363636363638,3.7227272727272727,1,0,Florida
78,k-and-j-wings-and-thangs-jacksonville,K & J Wings and  Thangs,1,Seafood,5.0,30.287627707474726,-81.57399728894234,Jacksonville,FL,1,16.236363636363638,3.7227272727272727,1,0,Florida
218308,hooks-fish-and-chicken-jacksonville,Hooks Fish & Chicken,2,Seafood,4.5,30.3331966400146,-81.7317276000977,Jacksonville,FL,1,16.236363636363638,3.7227272727272727,1,0,Florida
893,the-juicy-southside-jacksonville,The Juicy - Southside,3,Seafood,2.5,30.2779467,-81.6032433,Jacksonville,FL,1,16.236363636363638,3.7227272727272727,0,0,Florida
9549,tunis-wings-and-subs-jacksonville-3,Tunis Wings and Subs,11,Seafood,2.5,30.285,-81.64357,Jacksonville,FL,1,16.236363636363638,3.7227272727272727,0,0,Florida
84,new-china-spring-jacksonville,New China Spring,15,Seafood,2.0,30.353796,-81.551195,Jacksonville,FL,1,16.236363636363638,3.7227272727272727,0,0,Florida
693,seaboar-seafood-and-bbq-jacksonville,SeaBoar Seafood & BBQ,9,Seafood,3.5,30.308557,-81.730952,Jacksonville,FL,1,16.236363636363638,3.7227272727272727,0,0,Florida
193,dior-restaurant-and-lounge-jacksonville,Dior Restaurant & Lounge,4,Seafood,2.5,30.21966,-81.568901,Jacksonville,FL,1,16.236363636363638,3.7227272727272727,0,0,Florida
652,seafood-in-motion-jacksonville,Seafood In Motion,2,Seafood,3.0,30.351576,-81.59257,Jacksonville,FL,1,16.236363636363638,3.7227272727272727,0,0,Florida
0,captain-ds-jacksonville-2,Captain D's,9,Seafood,2.5,30.349559,-81.653922,Jacksonville,FL,1,16.236363636363638,3.7227272727272727,0,0,Florida
2680,hookem-up-seafood-and-more-jacksonville,Hook'em Up Seafood & More,6,Seafood,3.5,30.331470489502,-81.6562194824219,Jacksonville,FL,1,16.236363636363638,3.7227272727272727,0,0,Florida
9637565,a-and-b-crab-shack-jacksonville,A & B Crab Shack,1,Seafood,5.0,30.361249,-81.7306661,Jacksonville,FL,1,16.236363636363638,3.7227272727272727,1,0,Florida
27678,tip-top-chicken-jacksonville,Tip Top Chicken,7,Seafood,3.5,30.3236630671401,-81.5462354198098,Jacksonville,FL,1,16.236363636363638,3.7227272727272727,0,0,Florida
859612,jville-crab-shack-jacksonville-2,Jville Crab Shack,8,Seafood,3.5,30.3313121795654,-81.7318420410156,Jacksonville,FL,1,16.236363636363638,3.7227272727272727,0,0,Florida
9137,hook-fish-and-chicken-jacksonville-2,Hook Fish & Chicken,8,Seafood,2.5,30.3646960045223,-81.6795995458961,Jacksonville,FL,1,16.236363636363638,3.7227272727272727,0,0,Florida
821,1-li-seafood-market-jacksonville,#1 Li Seafood Market,1,Seafood,5.0,30.35111,-81.59708,Jacksonville,FL,1,16.236363636363638,3.7227272727272727,1,0,Florida
135,2111-lounge-jacksonville,2111 Lounge,2,Seafood,2.0,30.343231124746872,-81.60239100055172,Jacksonville,FL,1,16.236363636363638,3.7227272727272727,0,0,Florida
745488,tasty-seafood-chicken-and-subs-jacksonville,Tasty Seafood Chicken & Subs,9,Seafood,2.5,30.366698,-81.594844,Jacksonville,FL,1,16.236363636363638,3.7227272727272727,0,0,Florida
1187,two-sisters-and-a-deviled-crab-orange-park-2,Two Sisters and a Deviled Crab,2,Seafood,5.0,30.18565,-81.73388,Orange Park,FL,1,16.236363636363638,3.7227272727272727,1,0,Florida
8494,hook-and-catch-jacksonville,Hook and Catch,4,Seafood,1.5,30.360108130419828,-81.65322046620291,Jacksonville,FL,1,16.236363636363638,3.7227272727272727,0,0,Florida
429,the-catfish-kitchen-jacksonville,The Catfish Kitchen,3,Seafood,3.0,30.27158,-81.6089,Jacksonville,FL,1,16.236363636363638,3.7227272727272727,0,0,Florida
788,mr-sharks-jacksonville-2,Mr Sharks,1,Seafood,4.0,30.3785657666356,-81.69930788594229,Jacksonville,FL,1,16.236363636363638,3.7227272727272727,1,0,Florida
826,university-crab-shack-jacksonville,University Crab Shack,3,Seafood,2.5,30.33486,-81.60299,Jacksonville,FL,1,16.236363636363638,3.7227272727272727,0,0,Florida
43,prince-ali-crab-house-and-seafood-jacksonville-2,Prince Ali Crab House & Seafood,2,Seafood,3.0,30.36163,-81.73157,Jacksonville,FL,1,16.236363636363638,3.7227272727272727,0,0,Florida
1,far-west-rodeo-jacksonville,Far West Rodeo,4,Seafood,3.5,30.18724,-81.62744,Jacksonville,FL,1,16.236363636363638,3.7227272727272727,0,0,Florida
17375,aj-seafood-jacksonville,AJ Seafood,6,Seafood,2.0,30.33131,-81.73053,Jacksonville,FL,1,16.236363636363638,3.7227272727272727,0,0,Florida
5436,sabor-latino-jacksonville,Sabor Latino,4,Seafood,3.0,30.2877611918248,-81.5564592263295,Jacksonville,FL,1,16.236363636363638,3.7227272727272727,0,0,Florida
43,krispy-krunchy-chicken-jacksonville-2,Krispy Krunchy Chicken,1,Seafood,3.0,30.31583,-81.73023,Jacksonville,FL,1,16.236363636363638,3.7227272727272727,0,0,Florida
647,rods-seafood-and-deli-jacksonville,Rod's Seafood and Deli,1,Seafood,4.0,30.3703651428223,-81.7100524902344,Jacksonville,FL,1,16.236363636363638,3.7227272727272727,1,0,Florida
227,cj-s-crab-house-jacksonville,CJ’s Crab House,5,Seafood,3.0,30.3741705,-81.66623067,Jacksonville,FL,1,16.236363636363638,3.7227272727272727,0,0,Florida
4,heaven-in-a-box-jacksonville,Heaven In A Box,1,Seafood,5.0,30.246788,-81.715964,Jacksonville,FL,1,16.236363636363638,3.7227272727272727,1,0,Florida
9,two-sisters-and-a-deviled-crab-orange-park,Two Sisters and A Deviled Crab,3,Seafood,5.0,30.12966,-81.77859,Orange Park,FL,1,16.236363636363638,3.7227272727272727,1,0,Florida
6,golden-crabhouse-jacksonville,Golden Crabhouse,1,Seafood,5.0,30.35799,-81.73163,Jacksonville,FL,1,16.236363636363638,3.7227272727272727,1,0,Florida
744464,bobs-crab-house-jacksonville,Bob's Crab House,2,Seafood,3.5,30.35799,-81.73163,Jacksonville,FL,1,16.236363636363638,3.7227272727272727,0,0,Florida
1,hooties-bait-and-tackle-jacksonville,Hootie's Bait & Tackle,2,Seafood,1.0,30.195194959878645,-81.61233182046469,Jacksonville,FL,1,16.236363636363638,3.7227272727272727,0,0,Florida
702,jc-restaurant-and-supper-club-jacksonville,JC Restaurant and Supper Club,1,Seafood,1.0,30.343314948160163,-81.60234991461039,Jacksonville,FL,1,16.236363636363638,3.7227272727272727,0,0,Florida
9,stricklands-seafood-cafe-and-market-jacksonville,Stricklands Seafood Cafe & Market,1,Seafood,1.0,30.32346,-81.53012,Jacksonville,FL,1,16.236363636363638,3.7227272727272727,0,0,Florida
304,canal-seafood-and-chicken-jacksonville,Canal Seafood & Chicken,1,Seafood,1.0,30.3358067572117,-81.6987005621195,Jacksonville,FL,1,16.236363636363638,3.7227272727272727,0,0,Florida
693,jjs-crabhouse-jacksonville,JJs Crabhouse,1,Seafood,3.0,30.357257,-81.66113,Jacksonville,FL,1,16.236363636363638,3.7227272727272727,0,0,Florida
6437,freshco-fish-market-and-grill-miami,FreshCo Fish Market & Grill,802,Seafood,4.5,25.650454,-80.391673,Miami,FL,3,1042.8153846153846,4.046153846153846,1,0,Florida
1,bonefish-grill-miami-9,Bonefish Grill,413,Seafood,4.0,25.655541,-80.396407,Miami,FL,2,216.31464174454828,3.7429906542056073,1,1,Florida
1,piruw-grill-peruvian-cuisine-miami,Piruw Grill Peruvian Cuisine,206,Seafood,4.0,25.6557886552356,-80.3975726240571,Miami,FL,2,216.31464174454828,3.7429906542056073,1,0,Florida
7045,flanigans-seafood-bar-and-grill-miami-14,Flanigan's Seafood Bar & Grill,440,Seafood,3.5,25.6643,-80.32398,Miami,FL,2,216.31464174454828,3.7429906542056073,0,1,Florida
451,captains-tavern-miami-3,Captains Tavern,358,Seafood,3.5,25.680163,-80.3158703,Miami,FL,2,216.31464174454828,3.7429906542056073,0,1,Florida
0,delicias-dominica-restaurant-miami,Delicias Dominica Restaurant,50,Seafood,3.5,25.651025819427563,-80.39162434358775,Miami,FL,1,16.236363636363638,3.7227272727272727,0,1,Florida
2462,noma-beach-at-redfish-coral-gables,NOMA Beach at Redfish,88,Seafood,3.0,25.67925515343308,-80.2567072090706,Coral Gables,FL,2,216.31464174454828,3.7429906542056073,0,0,Florida
279,crazy-fish-miami-miami,Crazy Fish Miami,1,Seafood,1.0,25.6710542,-80.3724774,Miami,FL,1,16.236363636363638,3.7227272727272727,0,0,Florida
5019,ulele-tampa,Ulele,3929,Seafood,4.0,27.95993932086276,-82.46280013744577,Tampa,FL,3,1042.8153846153846,4.046153846153846,0,1,Florida
26,ocean-prime-tampa,Ocean Prime,972,Seafood,4.5,27.96082,-82.5238,Tampa,FL,3,1042.8153846153846,4.046153846153846,1,0,Florida
25,coopers-hawk-winery-and-restaurants-tampa-tampa,Cooper's Hawk Winery & Restaurant- Tampa,1385,Seafood,4.0,27.965386,-82.512459,Tampa,FL,3,1042.8153846153846,4.046153846153846,0,1,Florida
71,fleming-s-prime-steakhouse-and-wine-bar-tampa,Fleming’s Prime Steakhouse & Wine Bar,661,Seafood,4.5,27.962193662104173,-82.51592622147848,Tampa,FL,3,1042.8153846153846,4.046153846153846,1,0,Florida
949844,eddie-vs-prime-seafood-tampa-2,Eddie V's Prime Seafood,946,Seafood,4.5,27.96031289,-82.51826253,Tampa,FL,3,1042.8153846153846,4.046153846153846,1,0,Florida
7692,rome-fig-tampa,Rome + Fig,247,Seafood,4.5,27.9474275,-82.476623,Tampa,FL,2,216.31464174454828,3.7429906542056073,1,1,Florida
52,seasons-52-tampa-2,Seasons 52,802,Seafood,4.0,27.946369954544,-82.52483,Tampa,FL,3,1042.8153846153846,4.046153846153846,0,0,Florida
40,ponte-modern-american-tampa,Ponte Modern American,197,Seafood,4.5,27.95283117294901,-82.50359317355257,Tampa,FL,2,216.31464174454828,3.7429906542056073,1,0,Florida
6972,casa-santo-stefano-tampa,Casa Santo Stefano,409,Seafood,4.0,27.959314,-82.434592,Tampa,FL,2,216.31464174454828,3.7429906542056073,1,1,Florida
426,rusty-pelican-tampa-tampa,Rusty Pelican - Tampa,1086,Seafood,4.0,27.962185,-82.569806,Tampa,FL,3,1042.8153846153846,4.046153846153846,0,1,Florida
973,charleys-steak-house-tampa,Charley's Steak House,1131,Seafood,4.0,27.951538,-82.519544,Tampa,FL,3,1042.8153846153846,4.046153846153846,0,1,Florida
82,the-capital-grille-tampa-3,The Capital Grille,465,Seafood,4.0,27.96596271816432,-82.52118826559976,Tampa,FL,2,216.31464174454828,3.7429906542056073,1,1,Florida
21,happy-fish-tampa,Happy Fish,652,Seafood,4.5,27.975344,-82.4849349,Tampa,FL,3,1042.8153846153846,4.046153846153846,1,0,Florida
6125,j-alexanders-tampa-2,J. Alexander's,460,Seafood,4.0,27.9519547257363,-82.5040393541349,Tampa,FL,2,216.31464174454828,3.7429906542056073,1,1,Florida
72,oystercatchers-tampa,Oystercatchers,781,Seafood,4.0,27.962275,-82.549347,Tampa,FL,3,1042.8153846153846,4.046153846153846,0,0,Florida
347,walk-on-s-sports-bistreaux-tampa-midtown-tampa,Walk-On’s Sports Bistreaux - Tampa Midtown,126,Seafood,4.5,27.9535240903729,-82.5024910731063,Tampa,FL,2,216.31464174454828,3.7429906542056073,1,0,Florida
1661011,cws-gin-joint-tampa-2,CW's Gin Joint,446,Seafood,4.0,27.9493871407893,-82.4584549978034,Tampa,FL,2,216.31464174454828,3.7429906542056073,1,1,Florida
135066,la-terrazza-ristorante-italiano-tampa,La Terrazza Ristorante Italiano,250,Seafood,4.5,27.960278,-82.4395096,Tampa,FL,2,216.31464174454828,3.7429906542056073,1,1,Florida
2111,shells-seafood-restaurant-tampa-10,Shells Seafood Restaurant,572,Seafood,4.5,27.9427255780305,-82.50535882331337,Tampa,FL,2,216.31464174454828,3.7429906542056073,1,1,Florida
6,mr-and-mrs-crab-tampa-2,Mr. and Mrs. Crab,127,Seafood,4.0,28.05349,-82.445704,Tampa,FL,2,216.31464174454828,3.7429906542056073,1,0,Florida
